objectid,wd17cd,ward_name,bng_e,bng_n,lng,lat,st_areashape,st_lengthshape
1,E05000026,Abbey,544434,184378,0.081291,51.53982162,0.000162797,0.095055991
2,E05000027,Alibon,549247,185196,0.150987,51.54592133,0.000176819,0.081043786
3,E05000028,Becontree,546863,185869,0.116912,51.55260086,0.000166958,0.075036049
4,E05000029,Chadwell Heath,548266,189340,0.138596,51.5834198,0.000438934,0.108752675
5,E05000030,Eastbrook,550774,186272,0.173453,51.55519104,0.000447234,0.106965939
6,E05000031,Eastbury,546074,183978,0.104756,51.53580856,0.000186473,0.090866817
7,E05000032,Gascoigne,544763,183581,0.085704,51.53258133,0.000141172,0.09362467
8,E05000033,Goresbrook,548007,184060,0.132641,51.53604126,0.00016556,0.071749196
9,E05000034,Heath,549340,186620,0.152931,51.55868912,0.000259416,0.097363054
10,E05000035,Longbridge,545276,184914,0.093644,51.54442978,0.00021321,0.077637722
11,E05000036,Mayesbrook,547124,185052,0.120332,51.5451889,0.000240573,0.09415206
12,E05000037,Parsloes,548150,185599,0.13534801,51.54983139,0.000161207,0.08546916
13,E05000038,River,549432,182817,0.15264501,51.5245018,0.000405318,0.10987722
14,E05000039,Thames,547151,182704,0.119742,51.52407837,0.000866225,0.167149466
15,E05000040,Valence,548153,186867,0.13592499,51.56122971,0.000167594,0.069892757
16,E05000041,Village,550361,184190,0.166611,51.53659058,0.000278253,0.097667272
17,E05000042,Whalebone,548545,187662,0.141911,51.56827164,0.000201478,0.085149862
18,E05000043,Brunswick Park,528433,193715,-0.14588,51.62760162,0.000412283,0.09689798
19,E05000044,Burnt Oak,520522,190761,-0.26113001,51.60279846,0.000268281,0.082065079
20,E05000045,Childs Hill,524656,186687,-0.20291001,51.56528854,0.000401059,0.111371649
21,E05000046,Colindale,521442,189584,-0.24826001,51.59201813,0.000342054,0.09215254
22,E05000047,Coppetts,528052,191830,-0.15207,51.61074829,0.000353118,0.088920664
23,E05000048,East Barnet,527475,195754,-0.15897,51.64614105,0.00048703,0.110405012
24,E05000049,East Finchley,526811,190033,-0.17062999,51.59487915,0.000325656,0.096199424
25,E05000050,Edgware,518863,193351,-0.28420001,51.62643051,0.000721475,0.148637268
26,E05000051,Finchley Church End,524690,190195,-0.20118,51.59680939,0.000353667,0.103602956
27,E05000052,Garden Suburb,526124,188445,-0.18111999,51.58076096,0.000613146,0.121734785
28,E05000053,Golders Green,523819,187290,-0.21477,51.57088852,0.000385571,0.109983975
29,E05000054,Hale,520890,193803,-0.25477001,51.63005829,0.000704157,0.183503052
30,E05000055,Hendon,523084,189557,-0.22458,51.59143066,0.000368295,0.092306903
31,E05000056,High Barnet,523890,196696,-0.21043,51.65541077,0.001079208,0.239952045
32,E05000057,Mill Hill,523111,192066,-0.22330999,51.61397171,0.001218776,0.177290965
33,E05000058,Oakleigh,526687,194738,-0.17072,51.63719177,0.000430954,0.133925389
34,E05000059,Totteridge,524649,193508,-0.20059,51.62659073,0.00113936,0.208664885
35,E05000060,Underhill,523991,195493,-0.20939,51.6445694,0.000591076,0.204854729
36,E05000061,West Finchley,525518,191440,-0.18878999,51.60781097,0.000280782,0.093599659
37,E05000062,West Hendon,522394,188065,-0.23504999,51.57817078,0.000444717,0.121875527
38,E05000063,Woodhouse,526776,191859,-0.17048,51.61130142,0.000340211,0.102822607
39,E05000064,Barnehurst,550460,175355,0.164272,51.45718002,0.000372163,0.127506514
40,E05000065,Belvedere,549321,178637,0.149278,51.48696899,0.000370984,0.116515961
41,E05000066,Blackfen and Lamorbey,545401,173876,0.090901,51.4452095,0.000217967,0.099605126
42,E05000067,Blendon and Penhill,547322,173969,0.118562,51.44554901,0.000271287,0.103247019
43,E05000068,Brampton,548864,176676,0.141874,51.46947098,0.000254539,0.091660001
44,E05000069,Christchurch,548925,175206,0.142132,51.45624924,0.000330075,0.107285008
45,E05000070,Colyers,550740,176890,0.168954,51.47090149,0.000212684,0.084706679
46,E05000071,Crayford,551768,175070,0.182962,51.45426941,0.000513177,0.135521387
47,E05000072,Cray Meadows,548274,171449,0.13119701,51.42266083,0.000929331,0.169852396
48,E05000073,Danson Park,547301,175187,0.118768,51.45650101,0.000350941,0.108878072
49,E05000074,East Wickham,545785,176411,0.097468,51.46789169,0.000281148,0.079887467
50,E05000075,Erith,550726,178873,0.169598,51.48871994,0.00044543,0.121535133
51,E05000076,Falconwood and Welling,545455,175296,0.092262,51.45795822,0.000216043,0.097688785
52,E05000077,Lesnes Abbey,548175,178189,0.132596,51.48324966,0.000306748,0.094313094
53,E05000078,Longlands,545622,171995,0.093306,51.42824936,0.000335721,0.110502225
54,E05000079,North End,552701,176856,0.19715101,51.47006989,0.000576038,0.143819913
55,E05000080,Northumberland Heath,549649,177366,0.15346,51.47546005,0.000226797,0.086151456
56,E05000081,St Mary's,549096,173258,0.14377099,51.43870163,0.00057257,0.137344936
57,E05000082,St Michael's,547201,176845,0.11802,51.47142029,0.000187362,0.056280899
58,E05000083,Sidcup,546202,173047,0.102077,51.43756104,0.000349501,0.119191574
59,E05000084,Thamesmead East,548396,180162,0.13660599,51.50091934,0.00051482,0.10626097
60,E05000085,Alperton,518344,183853,-0.29488999,51.54116821,0.000266792,0.107214451
61,E05000086,Barnhill,519301,187233,-0.27994999,51.5713501,0.000386344,0.118064117
62,E05000087,Brondesbury Park,523503,184107,-0.22045,51.54235077,0.000224142,0.085578744
63,E05000088,Dollis Hill,522313,186513,-0.23676001,51.5642395,0.000298174,0.087627098
64,E05000089,Dudden Hill,522083,185505,-0.24043,51.55522919,0.00021798,0.115746464
65,E05000090,Fryent,520182,188419,-0.26684001,51.58182144,0.000344971,0.106905581
66,E05000091,Harlesden,521490,183879,-0.24954,51.54074097,0.000144337,0.058203137
67,E05000092,Kensal Green,522352,183277,-0.23732001,51.53514862,0.000145139,0.07018784
68,E05000093,Kenton,517617,188189,-0.30392,51.58029938,0.000290973,0.09532907
69,E05000094,Kilburn,524960,183799,-0.19956,51.53926849,0.000122329,0.059374076
70,E05000095,Mapesbury,523466,185443,-0.22051001,51.55437088,0.000180643,0.071114655
71,E05000096,Northwick Park,516715,187252,-0.31724,51.57205963,0.000347544,0.099874663
72,E05000097,Preston,518207,186413,-0.296,51.56420898,0.000309695,0.086695146
73,E05000098,Queens Park,524047,183333,-0.21288,51.53527832,0.000192511,0.077941076
74,E05000099,Queensbury,519681,189604,-0.27366,51.59257889,0.000266143,0.084604287
75,E05000100,Stonebridge,520083,183661,-0.26989001,51.53908157,0.000524981,0.130219149
76,E05000101,Sudbury,516871,185370,-0.31562001,51.55511856,0.000275472,0.104149644
77,E05000102,Tokyngton,519356,185188,-0.27985001,51.55295944,0.000357698,0.092705916
78,E05000103,Welsh Harp,520882,186662,-0.25734001,51.56587982,0.000300705,0.110263597
79,E05000104,Wembley Central,518205,184839,-0.29655999,51.55007172,0.000207953,0.08823024
80,E05000105,Willesden Green,522219,184330,-0.23886999,51.54463959,0.000200648,0.093690588
81,E05000106,Bickley,542443,169027,0.046418,51.40238953,0.000629048,0.125018396
82,E05000107,Biggin Hill,541094,159119,0.023113,51.31369019,0.001067799,0.179807749
83,E05000108,Bromley Common and Keston,542215,165398,0.041692,51.36983871,0.001072685,0.219083926
84,E05000109,Bromley Town,540273,169266,0.015337,51.40507889,0.000480183,0.164131353
85,E05000110,Chelsfield and Pratts Bottom,547216,162725,0.112379,51.34455109,0.001621234,0.267654429
86,E05000111,Chislehurst,544442,170313,0.075659,51.4134407,0.001349243,0.207332893
87,E05000112,Clock House,536163,169328,-0.04369,51.40663147,0.00029284,0.1091295
88,E05000113,Copers Cope,537815,170017,-0.01968,51.41242981,0.000424755,0.134380895
89,E05000114,Cray Valley East,548054,168282,0.12671401,51.39426041,0.001715053,0.24033368
90,E05000115,Cray Valley West,546389,168891,0.10305,51.40016174,0.000508793,0.147322538
91,E05000116,Crystal Palace,534382,170280,-0.06892,51.41561127,0.000296113,0.090333526
92,E05000117,Darwin,542742,160113,0.047142,51.3222084,0.003745637,0.36633376
93,E05000118,Farnborough and Crofton,544022,164853,0.067413,51.36449051,0.000904379,0.172465328
94,E05000119,Hayes and Coney Hall,539858,165582,0.007927,51.37208176,0.001397309,0.192300179
95,E05000120,Kelsey and Eden Park,537051,167654,-0.03157,51.39138031,0.000671573,0.156022255
96,E05000121,Mottingham and Chislehurst North,542017,172311,0.041613,51.43201065,0.000315677,0.101213721
97,E05000122,Orpington,546890,165750,0.108949,51.37181091,0.000549491,0.117895707
98,E05000123,Penge and Cator,535785,170333,-0.04873,51.41576004,0.00038251,0.100596086
99,E05000124,Petts Wood and Knoll,544615,167525,0.07701,51.38834,0.000555498,0.155193504
100,E05000125,Plaistow and Sundridge,540853,170677,0.024231,51.41761017,0.000517073,0.119047135
101,E05000126,Shortlands,539010,168318,-0.00318,51.39686966,0.000317355,0.103805508
102,E05000127,West Wickham,538494,166071,-0.01146,51.37680054,0.000569521,0.117080368
103,E05000128,Belsize,527236,184686,-0.16643,51.54673004,0.00010117,0.046665677
104,E05000129,Bloomsbury,529655,181984,-0.13256,51.52190018,0.000132252,0.059597567
105,E05000130,Camden Town with Primrose Hill,528438,184062,-0.14934,51.54085159,0.000151125,0.068879978
106,E05000131,Cantelowes,529498,184536,-0.13389,51.54486847,9.84E-05,0.049241389
107,E05000132,Fortune Green,524882,185333,-0.20014,51.55307007,0.000130476,0.065421012
108,E05000133,Frognal and Fitzjohns,526006,185705,-0.1838,51.55615997,0.000198371,0.071511628
109,E05000134,Gospel Oak,528008,185341,-0.15507001,51.55244064,8.97E-05,0.053466092
110,E05000135,Hampstead Town,526645,186181,-0.17442,51.56029892,0.000317566,0.098471344
111,E05000136,Haverstock,528188,184717,-0.15270001,51.54679108,9.48E-05,0.049365174
112,E05000137,Highgate,528093,186523,-0.15341,51.56304169,0.000420009,0.092815357
113,E05000138,Holborn and Covent Garden,530905,181692,-0.11466,51.51897812,0.00015478,0.073794308
114,E05000139,Kentish Town,529104,185286,-0.13929,51.55170059,0.000133381,0.057593707
115,E05000140,Kilburn,525799,183940,-0.18741,51.54035187,8.88E-05,0.061079647
116,E05000141,King's Cross,530349,182567,-0.12235,51.52698135,7.92E-05,0.042582897
117,E05000142,Regent's Park,528987,182932,-0.14184,51.53057098,0.000174857,0.06815234
118,E05000143,St Pancras and Somers Town,529714,183428,-0.13118,51.5348587,0.00018127,0.063567882
119,E05000144,Swiss Cottage,526951,184105,-0.17075001,51.54156876,0.000162872,0.085993843
120,E05000145,West Hampstead,525653,184819,-0.1892,51.54827881,0.00011501,0.065998361
121,E05000146,Addiscombe,533593,166444,-0.0817,51.38132858,0.000205087,0.061086942
122,E05000147,Ashburton,535349,166837,-0.05633,51.38444138,0.000350218,0.107536234
123,E05000148,Bensham Manor,531864,168045,-0.10593,51.39611816,0.00018622,0.068631585
124,E05000149,Broad Green,531302,166254,-0.11467,51.38014984,0.000343766,0.110314984
125,E05000150,Coulsdon East,531011,157841,-0.12194,51.30461121,0.000998405,0.164117943
126,E05000151,Coulsdon West,529713,159972,-0.13978,51.32405853,0.000643801,0.169823508
127,E05000152,Croham,533237,163581,-0.08788,51.35567856,0.000455243,0.123846389
128,E05000153,Fairfield,533352,165430,-0.08554,51.37226868,0.000487049,0.130388754
129,E05000154,Fieldway,538114,163487,-0.01792,51.35366821,0.000191848,0.066043072
130,E05000155,Heathfield,536611,163434,-0.03951,51.3535614,0.001124669,0.243091691
131,E05000156,Kenley,532074,159424,-0.10612,51.3185997,0.000832619,0.155016104
132,E05000157,New Addington,538527,162101,-0.01253,51.34112167,0.000311868,0.105849479
133,E05000158,Norbury,530911,169616,-0.11905,51.41046143,0.00032542,0.097815302
134,E05000159,Purley,530154,161730,-0.13281,51.33975983,0.000538727,0.16545439
135,E05000160,Sanderstead,533929,160814,-0.07899,51.33065033,0.000818652,0.157653352
136,E05000161,Selhurst,532966,167445,-0.09033,51.3904686,0.0002936,0.082206908
137,E05000162,Selsdon and Ballards,535290,162268,-0.05892,51.34339905,0.000825619,0.184090463
138,E05000163,Shirley,536489,166163,-0.04022,51.37810898,0.000362247,0.138878633
139,E05000164,South Norwood,533870,168952,-0.07678,51.40380096,0.000307285,0.101339747
140,E05000165,Thornton Heath,532495,168827,-0.09658,51.40299988,0.000217205,0.073535841
141,E05000166,Upper Norwood,532433,170257,-0.09693,51.41587067,0.000339027,0.115540445
142,E05000167,Waddon,531605,164129,-0.1111,51.36098862,0.000470859,0.115221462
143,E05000168,West Thornton,530971,167755,-0.11887,51.39371872,0.000254625,0.083914314
144,E05000169,Woodside,534625,167779,-0.06637,51.39308167,0.000279863,0.089412579
145,E05000170,Acton Central,519997,181039,-0.27202001,51.51554108,0.000229864,0.089636252
146,E05000171,Cleveland,516520,182148,-0.32174,51.52622986,0.000288722,0.107852366
147,E05000172,Dormers Wells,513742,181092,-0.36210999,51.51729965,0.000292397,0.104844977
148,E05000173,Ealing Broadway,517288,181128,-0.31101999,51.51689911,0.000240519,0.081362989
149,E05000174,Ealing Common,518521,180272,-0.29354,51.50894928,0.000277282,0.080610629
150,E05000175,East Acton,520511,182112,-0.26425001,51.52507019,0.00055393,0.15467936
151,E05000176,Elthorne,515828,179675,-0.33252999,51.50415039,0.000258963,0.09127918
152,E05000177,Greenford Broadway,513416,182660,-0.36629999,51.53145981,0.000326118,0.130849068
153,E05000178,Greenford Green,514686,183987,-0.34757,51.54312897,0.0004387,0.141655001
154,E05000179,Hanger Hill,518434,182120,-0.29416999,51.52558136,0.000424601,0.129340094
155,E05000180,Hobbayne,515236,181403,-0.34049001,51.51979828,0.000286211,0.078987154
156,E05000181,Lady Margaret,513205,181637,-0.36967,51.52230835,0.000199752,0.081162962
157,E05000182,Northfield,516945,179087,-0.31663001,51.49863052,0.00019942,0.089115232
158,E05000183,North Greenford,516073,184839,-0.32730001,51.55051041,0.000422264,0.134415246
159,E05000184,Northolt Mandeville,512751,184565,-0.37527999,51.54872131,0.000357342,0.105467736
160,E05000185,Northolt West End,511303,183433,-0.39651,51.5388298,0.000459484,0.125654663
161,E05000186,Norwood Green,513779,179256,-0.36217001,51.50080109,0.000491591,0.131666888
162,E05000187,Perivale,516484,183227,-0.32190001,51.53593063,0.000436422,0.139858085
163,E05000188,South Acton,519732,179922,-0.27621999,51.50555038,0.000222648,0.07654549
164,E05000189,Southall Broadway,512575,180254,-0.37919,51.51000977,0.000209457,0.091870254
165,E05000190,Southall Green,511761,179168,-0.39126,51.50040817,0.000205397,0.07800447
166,E05000191,Southfield,520691,179377,-0.26258999,51.50045013,0.000184995,0.06562458
167,E05000192,Walpole,516957,179928,-0.31617999,51.50619125,0.000189855,0.064629157
168,E05000193,Bowes,531483,192089,-0.10245,51.6122818,0.000192528,0.124110133
169,E05000194,Bush Hill Park,532941,194687,-0.08042,51.63528824,0.000327825,0.110773031
170,E05000195,Chase,531422,199207,-0.10066,51.6762619,0.002201242,0.296570349
171,E05000196,Cockfosters,527997,197445,-0.15081,51.66122055,0.001352982,0.236225375
172,E05000197,Edmonton Green,535043,192950,-0.05074,51.61917877,0.000405842,0.122674645
173,E05000198,Enfield Highway,536383,197335,-0.02969,51.65826035,0.000602382,0.119144873
174,E05000199,Enfield Lock,536635,198893,-0.02544,51.67219925,0.000422669,0.097068601
175,E05000200,Grange,532157,195682,-0.09137,51.64440918,0.000426689,0.112943533
176,E05000201,Haselbury,533440,193357,-0.07372,51.62321854,0.000233168,0.080313351
177,E05000202,Highlands,530904,197284,-0.10887,51.65909958,0.00066105,0.137817435
178,E05000203,Jubilee,535608,194766,-0.04188,51.63536072,0.000510107,0.141073139
179,E05000204,Lower Edmonton,535464,193776,-0.04434,51.62649918,0.000283352,0.108141179
180,E05000205,Palmers Green,531835,192895,-0.09707,51.61943817,0.000252115,0.08535511
181,E05000206,Ponders End,536187,195789,-0.03312,51.64440918,0.000460164,0.115329867
182,E05000207,Southbury,534114,196542,-0.06277,51.65167999,0.000372452,0.100549247
183,E05000208,Southgate,529928,194448,-0.12402,51.63383865,0.000348973,0.113207073
184,E05000209,Southgate Green,529878,192851,-0.12534,51.61949921,0.000339273,0.100192487
185,E05000210,Town,532992,197449,-0.07864,51.66009903,0.000289913,0.087176883
186,E05000211,Turkey Street,535274,198954,-0.04508,51.67308044,0.000293918,0.075079345
187,E05000212,Upper Edmonton,534193,192015,-0.06337,51.61098099,0.000342955,0.136978975
188,E05000213,Winchmore Hill,531301,193979,-0.10437,51.62931061,0.00035846,0.109741882
189,E05000214,Abbey Wood,546816,178669,0.113238,51.48791122,0.000343926,0.085887302
190,E05000215,Blackheath Westcombe,540049,177455,0.015356,51.47872162,0.000276673,0.103241359
191,E05000216,Charlton,541457,177891,0.035792,51.48228836,0.000262877,0.088881225
192,E05000217,Coldharbour and New Eltham,543436,172428,0.062059,51.43270111,0.000329577,0.091387153
193,E05000218,Eltham North,543431,175383,0.063184,51.4592514,0.000330512,0.108867409
194,E05000219,Eltham South,543742,174021,0.067105,51.44694138,0.000598278,0.132624459
195,E05000220,Eltham West,541497,175377,0.035362,51.45969009,0.000313765,0.09357649
196,E05000221,Glyndon,544655,178804,0.08219,51.48968124,0.00020033,0.079782207
197,E05000222,Greenwich West,538594,177146,-0.0057,51.47629929,0.000327149,0.12928793
198,E05000223,Kidbrooke with Hornfair,541854,176630,0.041,51.47085953,0.000307235,0.088459262
199,E05000224,Middle Park and Sutcliffe,541117,173988,0.029343,51.44729996,0.000425693,0.143007821
200,E05000225,Peninsula,540033,179031,0.015751,51.4928894,0.000442628,0.119953613
201,E05000226,Plumstead,545924,178299,0.100247,51.48482132,0.000303085,0.106760348
202,E05000227,Shooters Hill,544200,176748,0.074802,51.47132111,0.000487876,0.117043293
203,E05000228,Thamesmead Moorings,545998,180063,0.102041,51.5006485,0.000507382,0.106697258
204,E05000229,Woolwich Common,543528,177730,0.065532,51.48031998,0.000339112,0.100002737
205,E05000230,Woolwich Riverside,542297,178809,0.048251,51.49032974,0.000328514,0.11777996
206,E05000250,Addison,523640,179464,-0.2201,51.50059891,7.18E-05,0.047918872
207,E05000251,Askew,522018,179714,-0.24337,51.50320053,9.87E-05,0.0615228
208,E05000252,Avonmore and Brook Green,524042,178845,-0.21453001,51.49494934,0.000116081,0.065948522
209,E05000253,College Park and Old Oak,522459,181963,-0.23624,51.52331161,0.000445197,0.104754
210,E05000254,Fulham Broadway,525088,177577,-0.19992,51.48331833,8.65E-05,0.047044906
211,E05000255,Fulham Reach,523772,177856,-0.21876,51.48611832,0.000106494,0.056598546
212,E05000256,Hammersmith Broadway,523240,178633,-0.22615001,51.49322128,0.000135707,0.063739446
213,E05000257,Munster,524335,176914,-0.21099,51.47753143,8.08E-05,0.045573263
214,E05000258,North End,524704,178057,-0.20528001,51.48772049,8.22E-05,0.044538089
215,E05000259,Palace Riverside,523893,176497,-0.2175,51.47388077,0.000147215,0.078001333
216,E05000260,Parsons Green and Walham,525321,176534,-0.19693001,51.4738884,0.000115934,0.071753586
217,E05000261,Ravenscourt Park,522145,178873,-0.24183001,51.49560928,0.000149173,0.072604343
218,E05000262,Sands End,525802,176110,-0.19016001,51.46997833,0.000147791,0.069916992
219,E05000263,Shepherd's Bush Green,523240,180112,-0.22563,51.50651169,0.000138331,0.062618534
220,E05000264,Town,524862,176732,-0.20347001,51.47576904,8.43E-05,0.047745617
221,E05000265,Wormholt and White City,522339,180556,-0.23845001,51.51068878,0.000116774,0.053094213
222,E05000266,Alexandra,529523,190387,-0.13136999,51.59743881,0.000339168,0.0924122
223,E05000267,Bounds Green,530243,191163,-0.12069,51.60425186,0.000179895,0.073722999
224,E05000268,Bruce Grove,533305,190094,-0.07691,51.59392929,0.000121511,0.054305732
225,E05000269,Crouch End,529666,188263,-0.13009,51.57831955,0.000186817,0.080709496
226,E05000270,Fortis Green,528059,189699,-0.15275,51.59159088,0.000258278,0.114889032
227,E05000271,Harringay,531449,188211,-0.1044,51.57743835,0.00020312,0.074226532
228,E05000272,Highgate,528141,188258,-0.15209,51.57862854,0.000323574,0.122263075
229,E05000273,Hornsey,530433,189213,-0.11868,51.58668137,0.000136718,0.061563432
230,E05000274,Muswell Hill,529197,189172,-0.13652,51.58660126,0.000214465,0.091519196
231,E05000275,Noel Park,531193,190038,-0.10741,51.59392166,0.000159017,0.062940461
232,E05000276,Northumberland Park,534515,191132,-0.05906,51.60297012,0.000245008,0.102188325
233,E05000277,St Ann's,532437,188747,-0.08994,51.58203125,0.000141875,0.0673535
234,E05000278,Seven Sisters,533558,188427,-0.0739,51.57889175,0.000167908,0.091016372
235,E05000279,Stroud Green,530914,188013,-0.11218,51.57579041,0.000141846,0.058806293
236,E05000280,Tottenham Green,533648,189087,-0.07235,51.58480072,0.000176368,0.071601288
237,E05000281,Tottenham Hale,534521,189778,-0.05949,51.59080124,0.000248047,0.082125035
238,E05000282,West Green,532322,189860,-0.09118,51.59206009,0.00018152,0.065618231
239,E05000283,White Hart Lane,532755,191140,-0.08445,51.6034584,0.000220456,0.077423613
240,E05000284,Woodside,531516,190985,-0.10239,51.60234833,0.000194281,0.073800503
241,E05000285,Belmont,516977,190886,-0.31224999,51.60467148,0.000230627,0.092286743
242,E05000286,Canons,517364,193105,-0.30592,51.62453079,0.000730504,0.150036211
243,E05000287,Edgware,519250,190753,-0.27948999,51.60300064,0.000182103,0.068031203
244,E05000288,Greenhill,515788,188408,-0.33023,51.5826416,0.000226348,0.087418699
245,E05000289,Harrow on the Hill,515118,186510,-0.34051999,51.5657196,0.000463239,0.11541445
246,E05000290,Harrow Weald,514533,191919,-0.34718999,51.61445999,0.000595805,0.137681582
247,E05000291,Hatch End,512921,191417,-0.37062001,51.61027145,0.00042558,0.113610432
248,E05000292,Headstone North,513617,190017,-0.36103001,51.59754944,0.000427723,0.122837989
249,E05000293,Headstone South,514234,188930,-0.35247999,51.5876503,0.000190403,0.073872767
250,E05000294,Kenton East,518376,189314,-0.29258999,51.59024811,0.000165978,0.073880216
251,E05000295,Kenton West,516718,189385,-0.31648999,51.59122849,0.000228947,0.081651812
252,E05000296,Marlborough,515460,189535,-0.33458999,51.59283829,0.00021365,0.089909147
253,E05000297,Pinner,511546,190587,-0.39074001,51.60308075,0.000425354,0.126945242
254,E05000298,Pinner South,511946,188424,-0.38565001,51.58356094,0.000304307,0.093968568
255,E05000299,Queensbury,518098,190294,-0.29627001,51.59910965,0.000209391,0.102288127
256,E05000300,Rayners Lane,512676,187662,-0.37537,51.5765686,0.000198408,0.08030582
257,E05000301,Roxbourne,513439,186514,-0.36473,51.56610107,0.000195263,0.088243738
258,E05000302,Roxeth,513565,185739,-0.36316001,51.55910873,0.000204205,0.080666819
259,E05000303,Stanmore Park,516121,192156,-0.32418999,51.61626053,0.000578915,0.122977464
260,E05000304,Wealdstone,515202,190225,-0.33809,51.59909058,0.000155204,0.070798461
261,E05000305,West Harrow,514018,187733,-0.35598001,51.57693863,0.000196466,0.078942484
262,E05000306,Brooklands,550276,188279,0.16713101,51.573349,0.000544937,0.132470318
263,E05000307,Cranham,557231,188611,0.26755899,51.57444,0.000849871,0.171171035
264,E05000308,Elm Park,552366,185008,0.195851,51.54339981,0.000474943,0.125540601
265,E05000309,Emerson Park,554963,188650,0.234874,51.57542038,0.000601972,0.169474576
266,E05000310,Gooshays,554454,193213,0.229541,51.61655045,0.001006963,0.193649524
267,E05000311,Hacton,553932,185873,0.218793,51.55075073,0.000319516,0.101606334
268,E05000312,Harold Wood,555514,190681,0.243717,51.59350967,0.000984504,0.199819778
269,E05000313,Havering Park,550821,192588,0.17684101,51.6119194,0.001269662,0.191415369
270,E05000314,Heaton,552987,191694,0.207707,51.60330963,0.000443193,0.136572792
271,E05000315,Hylands,552410,187242,0.19745199,51.5634613,0.000375656,0.091134584
272,E05000316,Mawneys,549815,190223,0.161313,51.59093857,0.000394688,0.109136868
273,E05000317,Pettits,551723,190487,0.188949,51.59280014,0.00051299,0.130883113
274,E05000318,Rainham and Wennington,553466,181382,0.210124,51.51052856,0.00198603,0.235084811
275,E05000319,Romford Town,551678,188724,0.187538,51.57698059,0.000371485,0.127647554
276,E05000320,St Andrew's,554297,186889,0.224499,51.55978012,0.000347022,0.107994032
277,E05000321,South Hornchurch,551263,182642,0.17894299,51.52244186,0.00081712,0.150838072
278,E05000322,Squirrel's Heath,553615,189464,0.215792,51.58309937,0.000343871,0.111442166
279,E05000323,Upminster,557943,185012,0.27621001,51.54190826,0.0029204,0.32309905
280,E05000324,Barnhill,510497,181987,-0.40858001,51.52598953,0.000274448,0.080470137
281,E05000325,Botwell,509045,180623,-0.42991999,51.51401138,0.000565111,0.136756957
282,E05000326,Brunel,507000,182115,-0.45892999,51.52782059,0.000424603,0.134143589
283,E05000327,Cavendish,511186,186761,-0.39714,51.56877136,0.000260867,0.076959714
284,E05000328,Charville,509253,182706,-0.42627999,51.53269958,0.000385429,0.095485092
285,E05000329,Eastcote and East Ruislip,510109,188450,-0.41215,51.58415985,0.000527144,0.1369395
286,E05000330,Harefield,506012,189747,-0.47086999,51.59659958,0.001976081,0.241855351
287,E05000331,Heathrow Villages,507064,176573,-0.45969,51.4779892,0.003044396,0.274802032
288,E05000332,Hillingdon East,508299,183518,-0.43978,51.54018021,0.000466371,0.126057276
289,E05000333,Ickenham,506720,186158,-0.46173999,51.56420898,0.000804583,0.147393435
290,E05000334,Manor,509924,186852,-0.41532001,51.56983185,0.00025602,0.0802381
291,E05000335,Northwood,508323,190763,-0.43720001,51.60528946,0.000960203,0.168427135
292,E05000336,Northwood Hills,510181,190309,-0.41053,51.60084915,0.000431953,0.122748534
293,E05000337,Pinkwell,508737,178976,-0.43487,51.49927139,0.000355881,0.098487646
294,E05000338,South Ruislip,510647,185281,-0.40538001,51.5555687,0.000961724,0.203688688
295,E05000339,Townfield,510502,180133,-0.40909001,51.50933075,0.000453122,0.103110075
296,E05000340,Uxbridge North,506411,184210,-0.46678001,51.54676056,0.000601628,0.117233602
297,E05000341,Uxbridge South,505228,182845,-0.48424,51.53470993,0.000403623,0.112206109
298,E05000342,West Drayton,505843,179232,-0.47646999,51.50212097,0.000452066,0.128974597
299,E05000343,West Ruislip,508460,187549,-0.43621999,51.57638168,0.00056915,0.154084139
300,E05000344,Yeading,511898,181627,-0.38850999,51.52248001,0.000300733,0.077347038
301,E05000345,Yiewsley,506757,180915,-0.46279001,51.5170784,0.000521081,0.12986368
302,E05000346,Bedfont,508369,173749,-0.44176999,51.45235825,0.000575426,0.147436272
303,E05000347,Brentford,518290,178487,-0.29747,51.49296188,0.000407942,0.144147912
304,E05000348,Chiswick Homefields,521142,176822,-0.25698,51.47739029,0.000263596,0.111381608
305,E05000349,Chiswick Riverside,520109,177306,-0.27168,51.4819603,0.000249072,0.081895945
306,E05000350,Cranford,510891,176182,-0.40472001,51.47373962,0.000352831,0.103200082
307,E05000351,Feltham North,510654,174417,-0.40869001,51.45792007,0.000437876,0.10878189
308,E05000352,Feltham West,509176,172401,-0.43057001,51.44009018,0.000411386,0.114551119
309,E05000353,Hanworth,511816,171122,-0.39300999,51.42808151,0.000417986,0.150392777
310,E05000354,Hanworth Park,511026,172421,-0.40395999,51.43991089,0.00047349,0.103287895
311,E05000355,Heston Central,512435,176640,-0.38236001,51.47755051,0.000218066,0.083539908
312,E05000356,Heston East,513221,177430,-0.37079,51.48448944,0.000266544,0.145172718
313,E05000357,Heston West,511443,177593,-0.39633,51.48630905,0.000495388,0.097154033
314,E05000358,Hounslow Central,514227,175818,-0.35683,51.46979904,0.000224388,0.067320946
315,E05000359,Hounslow Heath,512321,174536,-0.38466999,51.45866013,0.000359903,0.093866416
316,E05000360,Hounslow South,514848,175341,-0.34805,51.46538925,0.000231616,0.084883297
317,E05000361,Hounslow West,512567,175570,-0.38080001,51.46791077,0.000209653,0.079787722
318,E05000362,Isleworth,516094,175250,-0.33015001,51.46432114,0.000254455,0.099463684
319,E05000363,Osterley and Spring Grove,515208,177597,-0.34213001,51.48559189,0.000812688,0.151487076
320,E05000364,Syon,517093,177049,-0.31518,51.48028183,0.000352292,0.126065607
321,E05000365,Turnham Green,519675,178753,-0.27744001,51.49505997,0.000229093,0.089534048
322,E05000366,Barnsbury,531071,183811,-0.11149,51.53799057,0.000107567,0.046949385
323,E05000367,Bunhill,532281,182438,-0.09456,51.52537155,0.000140251,0.075723806
324,E05000368,Caledonian,530558,183901,-0.11884,51.53892136,0.000147234,0.057343692
325,E05000369,Canonbury,532445,184332,-0.09149,51.54235077,0.000104616,0.045011689
326,E05000370,Clerkenwell,531202,182644,-0.11003,51.52746964,0.000120824,0.062448376
327,E05000371,Finsbury Park,530812,186416,-0.11425,51.56145859,0.000118796,0.055070382
328,E05000372,Highbury East,531832,185104,-0.10003,51.54943085,0.000130675,0.061281785
329,E05000373,Highbury West,531299,185856,-0.10744,51.55630875,0.000140339,0.055135873
330,E05000374,Hillrise,529640,187394,-0.13079,51.57051849,0.000106946,0.055099973
331,E05000375,Holloway,530486,185379,-0.11933,51.55221939,0.000130749,0.051116533
332,E05000376,Junction,529423,186419,-0.13427,51.56180954,0.000133222,0.056060922
333,E05000377,Mildmay,532770,185225,-0.08647,51.5503006,0.000107166,0.056010664
334,E05000378,St George's,529755,185733,-0.12974,51.5555687,0.00010965,0.051325781
335,E05000379,St Mary's,531543,184121,-0.10457,51.54066849,0.000112529,0.057699866
336,E05000380,St Peter's,532044,183547,-0.09756,51.53538895,0.000105024,0.051892054
337,E05000381,Tollington,530411,187047,-0.1198,51.56721878,0.000110046,0.055308223
338,E05000400,Alexandra,520047,166637,-0.27618,51.38608932,0.0003468,0.083392728
339,E05000401,Berrylands,518942,167293,-0.29183999,51.3922081,0.000187823,0.071739591
340,E05000402,Beverley,521766,168663,-0.25080001,51.40393066,0.000242689,0.09610724
341,E05000403,Canbury,518594,170117,-0.29589,51.4176712,0.000160587,0.067357645
342,E05000404,Chessington North and Hook,517881,164742,-0.30792001,51.36951065,0.000249174,0.091391042
343,E05000405,Chessington South,517928,162408,-0.30802,51.34851837,0.000974655,0.150155235
344,E05000406,Coombe Hill,520621,170839,-0.26651001,51.42372894,0.000571576,0.127746038
345,E05000407,Coombe Vale,520476,169259,-0.26912999,51.40956116,0.00021286,0.063166344
346,E05000408,Grove,518272,168633,-0.30102,51.40439987,0.000248149,0.098772105
347,E05000409,Norbiton,519406,168947,-0.28461999,51.40697861,0.000174086,0.064930311
348,E05000410,Old Malden,521537,166612,-0.25479001,51.38554001,0.000232513,0.086009775
349,E05000411,St James,521383,167395,-0.25674,51.39260864,0.0002798,0.093509149
350,E05000412,St Mark's,517845,167545,-0.30750999,51.39471054,0.000177744,0.088885941
351,E05000413,Surbiton Hill,518376,166571,-0.30021,51.38584137,0.000215038,0.071268764
352,E05000414,Tolworth and Hook Rise,519013,165300,-0.29148,51.37429047,0.000335063,0.097697959
353,E05000415,Tudor,518256,170806,-0.30052,51.42393112,0.000204584,0.091247106
354,E05000416,Bishop's,531037,179672,-0.11351,51.50080109,0.000160168,0.05714085
355,E05000417,Brixton Hill,530487,174260,-0.12343,51.45228958,0.00014632,0.062383493
356,E05000418,Clapham Common,529420,174624,-0.13864,51.45581055,0.000173151,0.056809978
357,E05000419,Clapham Town,529177,175721,-0.14173999,51.46572113,0.000144768,0.058718269
358,E05000420,Coldharbour,531478,175651,-0.10866,51.46456146,0.000156294,0.051770665
359,E05000421,Ferndale,530864,175676,-0.11748,51.46493149,0.000110065,0.065843815
360,E05000422,Gipsy Hill,532816,171711,-0.09089,51.42884064,0.000203042,0.070354799
361,E05000423,Herne Hill,531951,175062,-0.10207,51.45915985,0.000262656,0.09036835
362,E05000424,Knight's Hill,531666,171709,-0.10742,51.42908859,0.000190254,0.065850495
363,E05000425,Larkhall,530066,176160,-0.12879001,51.46945953,0.000137317,0.062519501
364,E05000426,Oval,530879,177660,-0.11653,51.48276138,0.000160721,0.07721162
365,E05000427,Prince's,531058,178476,-0.11365,51.49005127,0.000137576,0.063347418
366,E05000428,St Leonard's,529945,171692,-0.13217001,51.42934036,0.000187165,0.076252228
367,E05000429,Stockwell,530309,176635,-0.12512,51.47367859,0.000112167,0.062571451
368,E05000430,Streatham Hill,530431,173054,-0.12468,51.4414711,0.000164307,0.069989937
369,E05000431,Streatham South,530011,170368,-0.13169999,51.41741943,0.00021947,0.088451453
370,E05000432,Streatham Wells,530706,171771,-0.1212,51.42987061,0.000187432,0.078423925
371,E05000433,Thornton,529594,173802,-0.13643999,51.44837952,0.000139364,0.054288351
372,E05000434,Thurlow Park,532082,173172,-0.10089,51.44213867,0.000195884,0.065364588
373,E05000435,Tulse Hill,531080,174027,-0.11499,51.4500618,0.000133468,0.062717545
374,E05000436,Vassall,531379,176885,-0.10963,51.4756813,0.000146192,0.053956049
375,E05000437,Bellingham,537448,172042,-0.02417,51.43070984,0.00039876,0.116428157
376,E05000438,Blackheath,538957,175950,-0.00095,51.46546173,0.000299921,0.109236657
377,E05000439,Brockley,537011,176314,-0.0288,51.46921158,0.000217605,0.070170784
378,E05000440,Catford South,538608,172997,-0.00712,51.43901062,0.000241346,0.081242475
379,E05000441,Crofton Park,536395,174248,-0.03846,51.45079041,0.000222402,0.080425751
380,E05000442,Downham,539005,171303,-0.00208,51.4236908,0.00030787,0.108077079
381,E05000443,Evelyn,536526,178155,-0.03507,51.48587036,0.000209987,0.080410578
382,E05000444,Forest Hill,534978,173025,-0.05931,51.44013977,0.000236353,0.080513698
383,E05000445,Grove Park,540665,172592,0.022289,51.43487167,0.00030938,0.118426724
384,E05000446,Ladywell,537158,175193,-0.02712,51.45909882,0.000207747,0.073393053
385,E05000447,Lee Green,539528,174471,0.006682,51.45203018,0.000232605,0.085429817
386,E05000448,Lewisham Central,538501,174552,-0.00805,51.45301056,0.000266718,0.115374245
387,E05000449,New Cross,535887,177612,-0.04447,51.48114014,0.000232568,0.103643409
388,E05000450,Perry Vale,536103,172588,-0.0433,51.43593979,0.000217794,0.064833415
389,E05000451,Rushey Green,537714,173709,-0.0197,51.44562912,0.000230868,0.088583438
390,E05000452,Sydenham,535154,171698,-0.05728,51.42816925,0.000225411,0.093365821
391,E05000453,Telegraph Hill,535875,176219,-0.04518,51.46863174,0.000200067,0.067173024
392,E05000454,Whitefoot,539538,172643,0.006106,51.43560028,0.000288307,0.105417016
393,E05000455,Abbey,525861,169831,-0.19154,51.41352844,0.000180066,0.063244357
394,E05000456,Cannon Hill,524298,168461,-0.21449,51.40156174,0.000287278,0.079767989
395,E05000457,Colliers Wood,527239,170365,-0.17155001,51.41801834,0.000143588,0.070073983
396,E05000458,Cricket Green,528055,167906,-0.16069999,51.39574051,0.000387002,0.142621156
397,E05000459,Dundonald,524512,169841,-0.21093,51.41392136,0.000148884,0.072595861
398,E05000460,Figge's Marsh,528248,169379,-0.1574,51.40893936,0.000147563,0.0816864
399,E05000461,Graveney,528651,170114,-0.15133999,51.41545105,0.000114064,0.063062489
400,E05000462,Hillside,524181,170518,-0.21545,51.42007828,0.000153688,0.074352226
401,E05000463,Lavender Fields,527163,169547,-0.17293,51.41069031,0.000152446,0.065720098
402,E05000464,Longthornton,529368,169377,-0.14131001,51.40866089,0.000191688,0.095655471
403,E05000465,Lower Morden,523813,166981,-0.22197001,51.38837051,0.000232995,0.079707876
404,E05000466,Merton Park,525222,168997,-0.20102,51.40618134,0.000234427,0.07288725
405,E05000467,Pollards Hill,529376,168198,-0.14162,51.39807129,0.000279485,0.087116931
406,E05000468,Ravensbury,526636,167860,-0.18110999,51.39564896,0.000237652,0.085510589
407,E05000469,Raynes Park,522776,169444,-0.23602,51.41072845,0.000239925,0.083695827
408,E05000470,St Helier,525226,167584,-0.20146,51.39347839,0.000238374,0.091893718
409,E05000471,Trinity,525714,170779,-0.19332001,51.42208099,0.000139088,0.068084522
410,E05000472,Village,523024,171098,-0.23187999,51.42554092,0.000803204,0.151531737
411,E05000473,West Barnes,522870,168052,-0.23514999,51.39820099,0.00025215,0.082971733
412,E05000474,Wimbledon Park,525436,171956,-0.1969,51.43272018,0.000298676,0.1122223
413,E05000475,Beckton,543657,181747,0.069023,51.51638031,0.000718171,0.145283795
414,E05000476,Boleyn,541637,183316,0.040561,51.5309906,0.000118828,0.061682775
415,E05000477,Canning Town North,539361,182293,0.007367,51.52236176,0.000318586,0.093318651
416,E05000478,Canning Town South,539907,181061,0.014742,51.5111618,0.000218327,0.099453415
417,E05000479,Custom House,541237,181261,0.033975,51.51261902,0.00026722,0.083694958
418,E05000480,East Ham Central,542407,183542,0.051745,51.53282928,0.000133705,0.060276658
419,E05000481,East Ham North,542472,184650,0.05313,51.54277039,0.000117228,0.064975819
420,E05000482,East Ham South,542982,182708,0.059691,51.52518845,0.000232075,0.093682462
421,E05000483,Forest Gate North,540346,185550,0.022852,51.5513916,0.000161718,0.080498087
422,E05000484,Forest Gate South,539885,184884,0.015943,51.54552078,0.000154373,0.07795391
423,E05000485,Green Street East,541402,184500,0.03765,51.54169083,9.67E-05,0.049726788
424,E05000486,Green Street West,540765,184319,0.028399,51.54021835,0.000104027,0.055755728
425,E05000487,Little Ilford,542591,185806,0.055312,51.55311966,0.000246227,0.085775415
426,E05000488,Manor Park,541859,185285,0.044552,51.54862976,0.00017301,0.072333873
427,E05000489,Plaistow North,540451,183309,0.023472,51.53121948,0.000127512,0.073133763
428,E05000490,Plaistow South,541108,182513,0.032618,51.52391052,0.000179344,0.062484758
429,E05000491,Royal Docks,542011,180183,0.044688,51.50273895,0.000428271,0.144659594
430,E05000492,Stratford and New Town,538428,184068,-0.00537,51.53853989,0.000542936,0.144421077
431,E05000493,Wall End,543185,184003,0.063141,51.53676987,0.000178382,0.064510508
432,E05000494,West Ham,539613,183706,0.011556,51.53499985,0.000173233,0.066197393
433,E05000495,Aldborough,546280,190122,0.110278,51.59096146,0.001115549,0.183897106
434,E05000496,Barkingside,543392,189053,0.068181,51.58209991,0.000198335,0.072831156
435,E05000497,Bridge,541908,191950,0.047948,51.60850143,0.000334627,0.098966085
436,E05000498,Chadwell,547235,188324,0.1233,51.57455826,0.000196151,0.080510493
437,E05000499,Church End,540149,190778,0.022095,51.59841156,0.000192666,0.071714403
438,E05000500,Clayhall,542372,189245,0.053548,51.58407974,0.000323479,0.097360598
439,E05000501,Clementswood,544413,186216,0.081742,51.55635071,0.000164906,0.074260289
440,E05000502,Cranbrook,542958,187625,0.061341,51.56938171,0.000311301,0.099838503
441,E05000503,Fairlop,544374,190945,0.083122,51.59885025,0.000466536,0.158722632
442,E05000504,Fullwell,543334,190341,0.06787,51.59368896,0.000283838,0.097601152
443,E05000505,Goodmayes,546383,186574,0.110287,51.55905151,0.000212657,0.115038732
444,E05000506,Hainault,546990,192308,0.121436,51.61042023,0.000733604,0.158456636
445,E05000507,Loxford,543907,185278,0.074065,51.54804993,0.000163986,0.109679561
446,E05000508,Mayfield,545479,185971,0.097006,51.55387115,0.00024396,0.080318504
447,E05000509,Monkhams,540274,192654,0.024649,51.61523819,0.000399343,0.108955281
448,E05000510,Newbury,544624,187965,0.085502,51.57201004,0.000274921,0.123978887
449,E05000511,Roding,541347,190293,0.039185,51.59376144,0.000306554,0.098042884
450,E05000512,Seven Kings,546526,188120,0.112992,51.57291031,0.000270139,0.103619012
451,E05000513,Snaresbrook,540242,188800,0.022648,51.58061981,0.000257485,0.102942846
452,E05000514,Valentines,543621,187029,0.070657,51.5638504,0.000194887,0.088372094
453,E05000515,Wanstead,541052,187677,0.03388,51.57032013,0.000673102,0.157319149
454,E05000516,Barnes,522528,177191,-0.2369,51.48041153,0.000342421,0.082474857
455,E05000517,East Sheen,520858,174041,-0.26201001,51.45246124,0.000754515,0.141889094
456,E05000518,Fulwell and Hampton Hill,514614,171210,-0.35275,51.42831039,0.000247942,0.092907192
457,E05000519,"Ham, Petersham and Richmond Riverside",518355,172475,-0.29854,51.43891144,0.001196304,0.206633658
458,E05000520,Hampton,516027,168882,-0.33320001,51.40710068,0.000888791,0.234636732
459,E05000521,Hampton North,513016,171175,-0.37573999,51.42832184,0.000252091,0.076122514
460,E05000522,Hampton Wick,517064,170551,-0.31773999,51.42189026,0.000354308,0.110471367
461,E05000523,Heathfield,513340,173549,-0.37031999,51.44958878,0.000247124,0.104803149
462,E05000524,Kew,518872,176737,-0.28968,51.47711182,0.000427152,0.116606752
463,E05000525,Mortlake and Barnes Common,521361,175939,-0.25413001,51.46940994,0.000238477,0.10175288
464,E05000526,North Richmond,518499,175644,-0.29541001,51.46736145,0.00035139,0.125569
465,E05000527,St Margarets and North Twickenham,516452,174391,-0.32528001,51.45653152,0.000254504,0.100951211
466,E05000528,South Richmond,518911,174472,-0.28988001,51.45674133,0.000344117,0.109345453
467,E05000529,South Twickenham,515512,172619,-0.33938,51.44078827,0.000218607,0.080091494
468,E05000530,Teddington,515869,170560,-0.33491999,51.42221069,0.000551604,0.148946351
469,E05000531,Twickenham Riverside,517038,173742,-0.31705999,51.45056915,0.000226584,0.110218715
470,E05000532,West Twickenham,514147,172481,-0.35905999,51.43983078,0.000317943,0.085506
471,E05000533,Whitton,514317,173978,-0.35613,51.45325089,0.000210338,0.085358696
472,E05000534,Brunswick Park,533082,176861,-0.08513,51.47505951,0.000120913,0.059080074
473,E05000535,Camberwell Green,532343,177037,-0.0957,51.4768219,0.00012613,0.059550446
474,E05000536,Cathedrals,531989,179859,-0.09974,51.5022583,0.000204891,0.074922975
475,E05000537,Chaucer,532686,179585,-0.0898,51.49962997,0.000106133,0.053714237
476,E05000538,College,533700,172042,-0.07805,51.43161011,0.000418047,0.105873745
477,E05000539,East Dulwich,533925,174652,-0.07383,51.45500946,0.000132025,0.058742789
478,E05000540,East Walworth,533387,178338,-0.08018,51.48825836,0.000148424,0.085272817
479,E05000541,Faraday,532858,177881,-0.08797,51.48427963,0.000113663,0.05319614
480,E05000542,Grange,533505,179091,-0.0782,51.49499893,0.000157245,0.076027397
481,E05000543,Livesey,534596,177716,-0.06301,51.48239136,0.000186153,0.089220849
482,E05000544,Newington,531937,178171,-0.10112,51.48709869,0.000107901,0.052365279
483,E05000545,Nunhead,535224,176393,-0.05448,51.47034836,0.000171875,0.081532669
484,E05000546,Peckham,533891,177240,-0.07334,51.47827911,0.000112545,0.063158317
485,E05000547,Peckham Rye,535274,174766,-0.05438,51.45571899,0.000291351,0.087619418
486,E05000548,Riverside,534196,179605,-0.06805,51.49945831,0.000134974,0.084566216
487,E05000549,Rotherhithe,535376,179355,-0.05116,51.49692917,0.000176181,0.07619852
488,E05000550,South Bermondsey,534310,178504,-0.06683,51.4895401,0.000126031,0.055406171
489,E05000551,South Camberwell,533354,175716,-0.08164,51.46471024,0.000172258,0.074062229
490,E05000552,Surrey Docks,536135,179733,-0.04009,51.50014114,0.000187798,0.077956399
491,E05000553,The Lane,534354,176083,-0.06712,51.46776962,0.000179704,0.076972078
492,E05000554,Village,532925,174176,-0.08839,51.4509697,0.000360511,0.089762014
493,E05000555,Beddington North,529747,165763,-0.13718,51.37609863,0.000644143,0.136873623
494,E05000556,Beddington South,530114,163217,-0.13283999,51.35313034,0.000395074,0.126944674
495,E05000557,Belmont,525922,162515,-0.19326,51.34777069,0.000301127,0.103986792
496,E05000558,Carshalton Central,527550,164411,-0.16921,51.36444855,0.00026128,0.104464835
497,E05000559,Carshalton South and Clockhouse,527970,162212,-0.16396999,51.34458923,0.000910121,0.180421492
498,E05000560,Cheam,524367,162746,-0.21549,51.35018921,0.000507246,0.138148807
499,E05000561,Nonsuch,522703,165096,-0.23857,51.37166977,0.000246239,0.099244947
500,E05000562,St Helier,526792,166324,-0.17941,51.38180923,0.0001933,0.077823284
501,E05000563,Stonecot,524707,166047,-0.20946001,51.37977982,0.00025617,0.073416722
502,E05000564,Sutton Central,525997,164415,-0.19151001,51.36483002,0.000169185,0.078475224
503,E05000565,Sutton North,525856,165606,-0.19311,51.37556076,0.000241952,0.071577498
504,E05000566,Sutton South,526236,163439,-0.18842,51.35599899,0.000164137,0.07508848
505,E05000567,Sutton West,525284,163808,-0.20196,51.3595314,0.000230071,0.091628751
506,E05000568,The Wrythe,527431,165603,-0.1705,51.37517929,0.000191576,0.084088631
507,E05000569,Wallington North,528854,164718,-0.15038,51.36690903,0.000209061,0.08019376
508,E05000570,Wallington South,528999,163274,-0.14882,51.35390091,0.000221746,0.077514617
509,E05000571,Wandle Valley,527924,166527,-0.16308001,51.38338089,0.000265251,0.09501084
510,E05000572,Worcester Park,523177,166070,-0.23142,51.3803215,0.000252747,0.076310731
511,E05000590,Cann Hall,539677,186400,0.013546,51.55918884,0.00011121,0.053827263
512,E05000591,Cathall,538696,186001,-0.00075,51.55585098,0.000137035,0.0569627
513,E05000592,Chapel End,537644,190618,-0.01411,51.5975914,0.00024005,0.074468298
514,E05000593,Chingford Green,538849,194979,0.005001,51.63647842,0.000483919,0.116283682
515,E05000594,Endlebury,537911,193900,-0.00896,51.62702179,0.000253052,0.077321893
516,E05000595,Forest,538779,188281,0.001343,51.57632065,0.000257563,0.085418259
517,E05000596,Grove Green,538490,186807,-0.0034,51.56314087,0.000116143,0.043927809
518,E05000597,Hale End and Highams Park,538907,190916,0.00423,51.59996033,0.000304534,0.105826782
519,E05000598,Hatch Lane,539310,192424,0.010643,51.61341095,0.000313631,0.102135082
520,E05000599,High Street,535210,188424,-0.05007,51.57846832,0.00039674,0.10640269
521,E05000600,Higham Hill,536187,190787,-0.03506,51.59946823,0.000417951,0.106487031
522,E05000601,Hoe Street,537739,189049,-0.01335,51.58346939,0.000142687,0.059086655
523,E05000602,Larkswood,538001,192550,-0.0082,51.61486816,0.000268118,0.078860363
524,E05000603,Lea Bridge,536295,187367,-0.03483,51.56871033,0.000343208,0.101282637
525,E05000604,Leyton,537483,186699,-0.01796,51.56241989,0.000263466,0.080534443
526,E05000605,Leytonstone,539213,187504,0.007294,51.56922913,0.000169331,0.06709093
527,E05000606,Markhouse,536667,188294,-0.02911,51.57695007,0.000188969,0.077034871
528,E05000607,Valley,536786,192434,-0.02578,51.61412048,0.000257614,0.07209457
529,E05000608,William Morris,536913,189857,-0.02495,51.59093094,0.00012962,0.077396758
530,E05000609,Wood Street,538815,189490,0.002339,51.58716965,0.000239994,0.075601293
531,E05000610,Balham,528396,174189,-0.15353,51.45212936,0.000156725,0.073768062
532,E05000611,Bedford,528695,172287,-0.14992,51.43497086,0.00023336,0.079547562
533,E05000612,Earlsfield,526322,172508,-0.18396001,51.43748856,0.00018148,0.085529992
534,E05000613,East Putney,524511,174442,-0.20933001,51.45526886,0.00020831,0.087463259
535,E05000614,Fairfield,525925,174728,-0.18888,51.45753098,0.000179408,0.091408375
536,E05000615,Furzedown,528817,171246,-0.14855,51.42559052,0.000182949,0.059112373
537,E05000616,Graveney,527818,171159,-0.16294,51.42502975,0.000130713,0.052703927
538,E05000617,Latchmere,527186,175919,-0.17031001,51.46794891,0.000140168,0.074825638
539,E05000618,Nightingale,528046,173158,-0.15894,51.44293976,0.00015932,0.061524672
540,E05000619,Northcote,527671,174636,-0.1638,51.45631027,0.000216726,0.086213058
541,E05000620,Queenstown,528646,176905,-0.14895,51.47647858,0.000374324,0.110949489
542,E05000621,Roehampton and Putney Heath,522399,173116,-0.24017,51.44380951,0.000572225,0.147510684
543,E05000622,St Mary's Park,526863,176608,-0.17472,51.47422028,0.000140029,0.070168469
544,E05000623,Shaftesbury,527982,175717,-0.15893,51.46596146,0.000122639,0.051664877
545,E05000624,Southfields,525267,173486,-0.19879,51.44651031,0.000197194,0.066326672
546,E05000625,Thamesfield,523495,175630,-0.22352999,51.46617126,0.000214733,0.092117461
547,E05000626,Tooting,527087,171754,-0.17323001,51.43053818,0.000206883,0.078538471
548,E05000627,Wandsworth Common,526797,173678,-0.17670999,51.44789886,0.000357602,0.100604496
549,E05000628,West Hill,524196,173319,-0.21425,51.44525146,0.000218006,0.060836952
550,E05000629,West Putney,522945,174764,-0.23174,51.45851135,0.000239013,0.079802669
551,E05000630,Abbey Road,526334,183257,-0.17995,51.53408813,0.000141878,0.056970257
552,E05000631,Bayswater,525483,181289,-0.19291,51.51659012,6.73E-05,0.047492972
553,E05000632,Bryanston and Dorset Square,527554,181754,-0.16291,51.52030945,9.37E-05,0.049518816
554,E05000633,Churchill,528475,178311,-0.15090001,51.48915863,6.68E-05,0.051292819
555,E05000634,Church Street,527022,182086,-0.17046,51.5234108,5.73E-05,0.037205607
556,E05000635,Harrow Road,525011,182475,-0.19929001,51.52735901,6.42E-05,0.048972547
557,E05000636,Hyde Park,526894,181230,-0.17261,51.51575089,0.000123711,0.056547155
558,E05000637,Knightsbridge and Belgravia,527232,179754,-0.16827001,51.50241089,0.000465435,0.120872738
559,E05000638,Lancaster Gate,526051,180979,-0.18483999,51.5136795,8.17E-05,0.04655428
560,E05000639,Little Venice,526176,182160,-0.18262,51.5242691,8.26E-05,0.048301504
561,E05000640,Maida Vale,525723,182783,-0.18892001,51.52996826,8.37E-05,0.04159753
562,E05000641,Marylebone High Street,528510,181693,-0.14916,51.51953888,0.000129675,0.059157692
563,E05000642,Queen's Park,524349,182672,-0.20875999,51.52927017,7.56E-05,0.040052559
564,E05000643,Regent's Park,527493,182826,-0.16339999,51.52996063,0.00029227,0.086799588
565,E05000644,St James's,529778,179951,-0.13154,51.50360107,0.000413385,0.111710779
566,E05000645,Tachbrook,529609,178295,-0.13458,51.48875046,4.58E-05,0.033300765
567,E05000646,Vincent Square,529800,178757,-0.13166,51.49285889,7.70E-05,0.047253465
568,E05000647,Warwick,528951,178671,-0.14392,51.49227905,7.43E-05,0.040676883
569,E05000648,Westbourne,525599,181793,-0.19106001,51.52109909,8.76E-05,0.063143531
570,E05000649,West End,528792,180787,-0.14543,51.51134109,0.000258992,0.085100066
571,E05000650,Astley Bridge,370670,412906,-2.44478989,53.61188889,0.000896373,0.185996748
572,E05000651,Bradshaw,374590,413058,-2.38555002,53.61346054,0.001259803,0.202651722
573,E05000652,Breightmet,374437,409641,-2.38757992,53.58274078,0.000503554,0.120758759
574,E05000653,Bromley Cross,372113,414150,-2.42308998,53.62314987,0.000948075,0.193103942
575,E05000654,Crompton,371741,410493,-2.42838001,53.59025955,0.000474729,0.150364945
576,E05000655,Farnworth,373564,406162,-2.40047002,53.55142975,0.000591124,0.146814217
577,E05000656,Great Lever,371959,408204,-2.42488003,53.56969833,0.000549111,0.148868541
578,E05000657,Halliwell,370828,409676,-2.44210005,53.58287048,0.00038382,0.09933745
579,E05000658,Harper Green,371512,406080,-2.43144011,53.55057907,0.000427007,0.122674915
580,E05000659,Heaton and Lostock,367961,409240,-2.48535991,53.57878113,0.00109399,0.222556983
581,E05000660,Horwich and Blackrod,362140,410545,-2.57343006,53.59011841,0.002004343,0.330531582
582,E05000661,Horwich North East,365750,412038,-2.5190599,53.60379028,0.001379156,0.245152144
583,E05000662,Hulton,369418,405943,-2.4630301,53.54922867,0.001423207,0.187422758
584,E05000663,Kearsley,375564,404886,-2.37018991,53.54005814,0.001043207,0.180674306
585,E05000664,Little Lever and Darcy Lever,375274,407414,-2.37475991,53.5627594,0.000699972,0.171347788
586,E05000665,Rumworth,370267,408025,-2.45040989,53.56800079,0.000262074,0.080303908
587,E05000666,Smithills,369230,411951,-2.46645999,53.60322189,0.001495877,0.262310185
588,E05000667,Tonge with the Haulgh,372953,409770,-2.4100101,53.58383179,0.000415762,0.100144535
589,E05000668,Westhoughton North and Chew Moor,365620,406875,-2.52045012,53.55738068,0.002271334,0.316604633
590,E05000669,Westhoughton South,364395,404864,-2.53871012,53.5392189,0.000853909,0.174151677
591,E05000670,Besses,381771,405926,-2.27659011,53.54965973,0.000343473,0.092376828
592,E05000671,Church,378564,410535,-2.32530999,53.59096146,0.000546309,0.164535731
593,E05000672,East,382701,411330,-2.26286006,53.59825897,0.000569379,0.178118696
594,E05000673,Elton,379386,412322,-2.31300998,53.60705948,0.000452247,0.10926349
595,E05000674,Holyrood,383274,405503,-2.25388002,53.54590988,0.000603588,0.154477171
596,E05000675,Moorside,381103,412374,-2.28706002,53.60758972,0.000638369,0.13617583
597,E05000676,North Manor,378620,414508,-2.32473993,53.62667084,0.001328949,0.293635334
598,E05000677,Pilkington Park,379384,405697,-2.3125999,53.54750824,0.000977592,0.192866808
599,E05000678,Radcliffe East,378655,408195,-2.32378006,53.56993103,0.000879352,0.180093272
600,E05000679,Radcliffe North,376513,409386,-2.35620999,53.58055115,0.00095956,0.168361793
601,E05000680,Radcliffe West,377876,406692,-2.33542991,53.55638885,0.000662574,0.16654259
602,E05000681,Ramsbottom,378147,417005,-2.33207011,53.64910126,0.001836782,0.2728131
603,E05000682,Redvales,380506,409255,-2.29589009,53.57952881,0.000498938,0.145290269
604,E05000683,St Mary's,380107,403393,-2.3015399,53.52682877,0.000676888,0.141495057
605,E05000684,Sedgley,382536,403044,-2.26487994,53.52378082,0.000286327,0.110248612
606,E05000685,Tottington,377233,412927,-2.34559011,53.6124115,0.001060409,0.227680611
607,E05000686,Unsworth,382436,407933,-2.26666999,53.56771851,0.001183831,0.190917617
608,E05000687,Ancoats and Clayton,387636,398888,-2.18778992,53.48656845,0.000601529,0.202704691
609,E05000688,Ardwick,385839,396661,-2.21477008,53.46651077,0.000553504,0.106550245
610,E05000689,Baguley,381171,388024,-2.28456998,53.3887291,0.000517963,0.117496675
611,E05000690,Bradford,387172,398057,-2.19475007,53.47909164,0.000699093,0.16900059
612,E05000691,Brooklands,380793,389733,-2.29035997,53.40407944,0.000561888,0.166104506
613,E05000692,Burnage,386408,392483,-2.20602012,53.42897034,0.000314863,0.091689317
614,E05000693,Charlestown,387385,403256,-2.19175005,53.52582932,0.000488299,0.114868987
615,E05000694,Cheetham,384408,400457,-2.23652005,53.50059128,0.000637991,0.128167593
616,E05000695,Chorlton,381131,393791,-2.28552008,53.44055939,0.000337076,0.104418696
617,E05000696,Chorlton Park,382585,392536,-2.26356006,53.42932892,0.000649684,0.140543953
618,E05000697,City Centre,383942,398119,-2.24341989,53.47956085,0.000421508,0.112665767
619,E05000698,Crumpsall,384444,402511,-2.23607993,53.5190506,0.000431222,0.132407917
620,E05000699,Didsbury East,384893,390817,-2.22873998,53.41395187,0.000480656,0.121275171
621,E05000700,Didsbury West,383755,391191,-2.24587989,53.41727829,0.000380864,0.12754486
622,E05000701,Fallowfield,384495,394300,-2.2349,53.44525146,0.00030686,0.111739966
623,E05000702,Gorton North,388555,396421,-2.17385006,53.46442032,0.00047529,0.12685282
624,E05000703,Gorton South,388320,395173,-2.17734003,53.45318985,0.000449272,0.148012245
625,E05000704,Harpurhey,386364,401341,-2.20707011,53.5085907,0.000517614,0.113881331
626,E05000705,Higher Blackley,384361,404086,-2.23741007,53.53319931,0.000955008,0.174489015
627,E05000706,Hulme,383630,396698,-2.24804997,53.46678162,0.000323427,0.099495233
628,E05000707,Levenshulme,387196,393796,-2.19421005,53.44078827,0.000319118,0.125028445
629,E05000708,Longsight,387026,395294,-2.19684005,53.45425034,0.000203257,0.082734326
630,E05000709,Miles Platting and Newton Heath,387660,400026,-2.18747997,53.49679947,0.000588811,0.167243007
631,E05000710,Moss Side,383884,395430,-2.24415994,53.45539093,0.000248878,0.092670012
632,E05000711,Moston,387958,401864,-2.18304992,53.51332855,0.000418574,0.13600849
633,E05000712,Northenden,382767,389549,-2.26065993,53.40248871,0.000730074,0.202562399
634,E05000713,Old Moat,384578,393142,-2.23358989,53.43484116,0.000234041,0.073350882
635,E05000714,Rusholme,386014,394940,-2.21205997,53.45103836,0.000266265,0.087413719
636,E05000715,Sharston,383099,387587,-2.25555992,53.38486862,0.000463171,0.144959036
637,E05000716,Whalley Range,382911,394692,-2.25876999,53.44871902,0.000318863,0.089016099
638,E05000717,Withington,385547,393147,-2.21901011,53.43490982,0.000215368,0.071804935
639,E05000718,Woodhouse Park,381754,385656,-2.27566004,53.36745834,0.00154265,0.232610258
640,E05000719,Alexandra,394050,403605,-2.0912199,53.52907944,0.000441705,0.147583282
641,E05000720,Chadderton Central,389853,404746,-2.1545701,53.53926849,0.000690608,0.142780734
642,E05000721,Chadderton North,389898,406466,-2.15394998,53.55472946,0.000501646,0.102454399
643,E05000722,Chadderton South,389980,403207,-2.15261006,53.52544022,0.000314995,0.106569017
644,E05000723,Coldhurst,392007,405625,-2.1220901,53.54721069,0.0003552,0.098408939
645,E05000724,Crompton,392811,409998,-2.11005998,53.58652878,0.000659712,0.137436337
646,E05000725,Failsworth East,390889,400847,-2.13882995,53.50424957,0.000615194,0.141192691
647,E05000726,Failsworth West,389265,401051,-2.16332006,53.50605011,0.000346517,0.123520976
648,E05000727,Hollinwood,391741,402481,-2.12601995,53.51895142,0.000375734,0.10877929
649,E05000728,Medlock Vale,393316,402612,-2.10226989,53.52014923,0.000492245,0.148808943
650,E05000729,Royton North,390935,408176,-2.13835001,53.57012177,0.00068272,0.12738904
651,E05000730,Royton South,392425,407457,-2.11582994,53.56367874,0.000545464,0.152545201
652,E05000731,Saddleworth North,400140,409373,-1.99934995,53.58095932,0.005687259,0.464613402
653,E05000732,Saddleworth South,401655,403711,-1.97650003,53.53007126,0.004426561,0.391647539
654,E05000733,Saddleworth West and Lees,395879,404341,-2.06364012,53.53572083,0.000575824,0.1855868
655,E05000734,St James',395113,407745,-2.07524991,53.56629944,0.000677904,0.154255387
656,E05000735,St Mary's,393349,405223,-2.10183001,53.54362106,0.000378732,0.125465946
657,E05000736,Shaw,395041,409457,-2.07637,53.58169174,0.000991449,0.178213172
658,E05000737,Waterhead,394789,405722,-2.08011007,53.54811859,0.00032749,0.088632723
659,E05000738,Werneth,391418,403981,-2.13093996,53.53242111,0.000224361,0.072412009
660,E05000739,Balderstone and Kirkholt,390613,410939,-2.14329004,53.59495163,0.000677876,0.135093502
661,E05000740,Bamford,387381,412790,-2.19219995,53.61151886,0.00058193,0.178028591
662,E05000741,Castleton,388501,409767,-2.17515993,53.58436966,0.001121912,0.174742768
663,E05000742,Central Rochdale,390046,413852,-2.15194988,53.62112045,0.000250847,0.109689027
664,E05000743,East Middleton,387853,404687,-2.18475008,53.5387001,0.000362298,0.130737297
665,E05000744,Healey,389353,415179,-2.16248012,53.63304138,0.000771894,0.163086238
666,E05000745,Hopwood Hall,386233,408733,-2.2093699,53.57501984,0.001172678,0.220714261
667,E05000746,Kingsway,391258,412613,-2.1336,53.61000824,0.000496208,0.129956408
668,E05000747,Littleborough Lakeside,394981,417109,-2.07739997,53.65047073,0.00373546,0.391515866
669,E05000748,Milkstone and Deeplish,389555,412665,-2.1593399,53.6104393,0.000322949,0.107871825
670,E05000749,Milnrow and Newhey,395271,412696,-2.07294011,53.61080933,0.002422915,0.310500159
671,E05000750,Norden,384964,415673,-2.22886992,53.63737106,0.003510519,0.374465838
672,E05000751,North Heywood,386055,410961,-2.21216011,53.59505081,0.000758464,0.177344393
673,E05000752,North Middleton,387927,406855,-2.18372011,53.55818939,0.00036317,0.128265224
674,E05000753,Smallbridge and Firgrove,391552,413633,-2.12917995,53.61917877,0.000337534,0.154575142
675,E05000754,South Middleton,386467,405168,-2.20567989,53.54299164,0.000540899,0.150485388
676,E05000755,Spotland and Falinge,387685,415883,-2.18773007,53.63933182,0.000793488,0.223179747
677,E05000756,Wardle and West Littleborough,391475,418349,-2.13048005,53.6615715,0.001819841,0.309671791
678,E05000757,West Heywood,383257,410029,-2.25437999,53.58658981,0.000750671,0.180345538
679,E05000758,West Middleton,385456,407157,-2.22103,53.56084061,0.000693503,0.147414832
680,E05000759,Barton,376572,397896,-2.35444999,53.47727966,0.000343895,0.127944917
681,E05000760,Boothstown and Ellenbrook,372516,399768,-2.41573,53.4939003,0.001164557,0.198849145
682,E05000761,Broughton,382953,400336,-2.25844002,53.49945068,0.000362506,0.111281767
683,E05000762,Cadishead,370238,394173,-2.44952989,53.44348907,0.001996153,0.227910885
684,E05000763,Claremont,379275,400643,-2.31391001,53.50207901,0.000256601,0.089746682
685,E05000764,Eccles,377292,399372,-2.34370995,53.49057007,0.000366411,0.102268841
686,E05000765,Irlam,372668,396150,-2.41312003,53.46139145,0.001265103,0.185279048
687,E05000766,Irwell Riverside,381244,399905,-2.28417993,53.49552155,0.000612114,0.185251871
688,E05000767,Kersal,381405,401441,-2.2818501,53.50933075,0.000423404,0.114536326
689,E05000768,Langworthy,380865,399041,-2.28983998,53.48773956,0.000275169,0.081344055
690,E05000769,Little Hulton,371481,403993,-2.43171,53.53181839,0.00057694,0.144038502
691,E05000770,Ordsall,381398,397789,-2.28173995,53.47650909,0.000559689,0.145302516
692,E05000771,Pendlebury,379014,402595,-2.31798005,53.51961899,0.000898803,0.200193655
693,E05000772,Swinton North,376695,402202,-2.35292006,53.51597977,0.000472197,0.092747694
694,E05000773,Swinton South,377807,401013,-2.33607006,53.50534821,0.000380284,0.108574726
695,E05000774,Walkden North,373827,403706,-2.39630008,53.52936935,0.000607185,0.14900866
696,E05000775,Walkden South,374280,402488,-2.38935995,53.51844025,0.000488699,0.126811307
697,E05000776,Weaste and Seedley,379336,398892,-2.31288004,53.48633957,0.000479535,0.112795744
698,E05000777,Winton,375376,398734,-2.37254,53.48474884,0.000502172,0.113407316
699,E05000778,Worsley,374953,400156,-2.37902999,53.497509,0.001135522,0.201912964
700,E05000779,Bramhall North,389479,386038,-2.15957999,53.37110901,0.000889797,0.164015448
701,E05000780,Bramhall South and Woodford,388889,383327,-2.16835999,53.34672928,0.001243451,0.208721462
702,E05000781,Bredbury and Woodley,393150,392202,-2.10454988,53.42657852,0.000827734,0.203587166
703,E05000782,Bredbury Green and Romiley,393944,390687,-2.09257007,53.4129715,0.001089294,0.207903826
704,E05000783,Brinnington and Central,390078,391174,-2.15073991,53.41728973,0.000743019,0.191934036
705,E05000784,Cheadle and Gatley,385188,388296,-2.22417998,53.3913002,0.000810353,0.16177631
706,E05000785,Cheadle Hulme North,386971,387758,-2.19735003,53.38650894,0.00052522,0.147383769
707,E05000786,Cheadle Hulme South,387131,385388,-2.19484997,53.36521149,0.000623387,0.151482079
708,E05000787,Davenport and Cale Green,388893,388298,-2.16846991,53.39141083,0.000406868,0.114454701
709,E05000788,Edgeley and Cheadle Heath,387818,389565,-2.18469,53.40277863,0.000401311,0.108129702
710,E05000789,Hazel Grove,392537,386515,-2.11364007,53.37545013,0.000481818,0.139278825
711,E05000790,Heald Green,385299,386068,-2.22240996,53.37128067,0.00064507,0.133749451
712,E05000791,Heatons North,387597,392169,-2.18811011,53.42618179,0.00046512,0.132947799
713,E05000792,Heatons South,387346,390746,-2.19182992,53.41337967,0.000529447,0.122352261
714,E05000793,Manor,390899,389569,-2.13835001,53.40287018,0.000417488,0.130317834
715,E05000794,Marple North,397080,389777,-2.04538012,53.40481949,0.003068106,0.374527656
716,E05000795,Marple South and High Lane,395825,386648,-2.06421995,53.37667847,0.001829543,0.282065506
717,E05000796,Offerton,392504,388694,-2.11418009,53.39503098,0.000584358,0.138554875
718,E05000797,Reddish North,389530,394299,-2.15909004,53.44535828,0.00035658,0.093650052
719,E05000798,Reddish South,389522,392336,-2.15914989,53.42771912,0.000516871,0.14642161
720,E05000799,Stepping Hill,391020,387612,-2.13647008,53.38528824,0.000581571,0.14890981
721,E05000800,Ashton Hurst,395056,401542,-2.07600999,53.51055145,0.000661745,0.13461096
722,E05000801,Ashton St Michael's,394845,399417,-2.07915998,53.49145126,0.000301107,0.082770759
723,E05000802,Ashton Waterloo,393358,400539,-2.10159993,53.50151062,0.000609474,0.145696217
724,E05000803,Audenshaw,391420,397463,-2.13072991,53.47383881,0.000634228,0.190028833
725,E05000804,Denton North East,392616,395447,-2.11265993,53.45574188,0.000373813,0.117466245
726,E05000805,Denton South,392929,393859,-2.10790992,53.4414711,0.000390472,0.120225785
727,E05000806,Denton West,391027,394962,-2.13657999,53.45135117,0.000695342,0.148980068
728,E05000807,Droylsden East,391022,398789,-2.13676,53.48574829,0.000438107,0.139860719
729,E05000808,Droylsden West,389708,398922,-2.15656996,53.4869194,0.000307583,0.092168065
730,E05000809,Dukinfield,394070,397634,-2.09081006,53.47541046,0.000509338,0.120154533
731,E05000810,Dukinfield Stalybridge,396088,397590,-2.06040001,53.47504044,0.000401482,0.108925841
732,E05000811,Hyde Godley,396608,394652,-2.05254006,53.44863129,0.000678481,0.183439881
733,E05000812,Hyde Newton,395286,396127,-2.07245994,53.46187973,0.000595821,0.140457152
734,E05000813,Hyde Werneth,396018,393626,-2.06139994,53.43941116,0.00090657,0.198695653
735,E05000814,Longdendale,398893,395605,-2.01813006,53.45721054,0.001574913,0.267091443
736,E05000815,Mossley,398436,402055,-2.02504992,53.51517868,0.001284915,0.234018282
737,E05000816,St Peter's,393011,398465,-2.10678005,53.48286819,0.000485945,0.165657631
738,E05000817,Stalybridge North,396599,399897,-2.05273008,53.49578094,0.000780772,0.181547204
739,E05000818,Stalybridge South,399610,399384,-2.00733995,53.49118042,0.002340074,0.265723545
740,E05000819,Altrincham,376517,388261,-2.3545599,53.39067078,0.000409896,0.128639988
741,E05000820,Ashton upon Mersey,377992,392347,-2.33266997,53.42745972,0.000310909,0.08649296
742,E05000821,Bowdon,373583,388107,-2.39865994,53.38914871,0.003176053,0.403606171
743,E05000822,Broadheath,376643,389898,-2.35279012,53.40539169,0.000565399,0.174805591
744,E05000823,Brooklands,378766,390787,-2.32091999,53.41347122,0.000301533,0.102237495
745,E05000824,Bucklow-St Martins,374168,392124,-2.3901999,53.42528152,0.001770191,0.316601404
746,E05000825,Clifford,382273,395714,-2.26842999,53.45788956,0.000252193,0.105844894
747,E05000826,Davyhulme East,376864,396110,-2.34992003,53.46123886,0.000566979,0.128684685
748,E05000827,Davyhulme West,374709,395252,-2.38230991,53.45341873,0.000590594,0.166441684
749,E05000828,Flixton,374639,394047,-2.38327003,53.44258881,0.000544383,0.159790734
750,E05000829,Gorse Hill,379658,396570,-2.30786991,53.46548843,0.00119735,0.185044871
751,E05000830,Hale Barns,379279,386354,-2.31290007,53.3736496,0.001132562,0.192505129
752,E05000831,Hale Central,377567,386648,-2.33866,53.3762207,0.000352269,0.106713288
753,E05000832,Longford,380761,394827,-2.29115009,53.44985962,0.000471234,0.134878415
754,E05000833,Priory,379673,392389,-2.30737996,53.42790985,0.000437717,0.119113284
755,E05000834,St Mary's,377034,391429,-2.34701991,53.41917038,0.000361875,0.100824036
756,E05000835,Sale Moor,380838,391426,-2.2897799,53.41928864,0.000384418,0.117979475
757,E05000836,Stretford,378954,394006,-2.31830001,53.44240952,0.000437909,0.102348984
758,E05000837,Timperley,378130,389325,-2.33037996,53.40029907,0.000279895,0.093571145
759,E05000838,Urmston,376975,393962,-2.34808993,53.44192886,0.000503448,0.151571611
760,E05000839,Village,379177,389185,-2.31463003,53.39908981,0.000295075,0.122687461
761,E05000840,Abram,360802,401943,-2.59256005,53.51271057,0.001761043,0.243199877
762,E05000841,Ashton,358483,400082,-2.62728,53.49580002,0.000792497,0.203257965
763,E05000842,Aspull New Springs Whelley,359739,408268,-2.60940003,53.56946945,0.00272371,0.35539201
764,E05000843,Astley Mosley Common,369879,398980,-2.45539999,53.48667908,0.002386641,0.308552118
765,E05000844,Atherleigh,366376,402368,-2.50854993,53.51691818,0.000774327,0.159582894
766,E05000845,Atherton,367566,403549,-2.49073005,53.52761078,0.000642566,0.180016381
767,E05000846,Bryn,356601,400856,-2.65575004,53.50260925,0.000923366,0.19092875
768,E05000847,Douglas,357034,405277,-2.6498301,53.54238129,0.000517471,0.154175471
769,E05000848,Golborne and Lowton West,361128,398409,-2.58719993,53.48096848,0.00110314,0.203305752
770,E05000849,Hindley,361813,404436,-2.57762003,53.53519058,0.000679506,0.183496626
771,E05000850,Hindley Green,363451,403329,-2.55277991,53.52536011,0.000570343,0.159872026
772,E05000851,Ince,359959,405278,-2.60570002,53.54262161,0.000645052,0.146473154
773,E05000852,Leigh East,367298,400695,-2.49446988,53.50194168,0.000673352,0.141440708
774,E05000853,Leigh South,366260,398660,-2.50990009,53.48358154,0.000886877,0.159298999
775,E05000854,Leigh West,363428,400762,-2.55281997,53.50228119,0.000992483,0.211127992
776,E05000855,Lowton East,362642,397699,-2.56431007,53.47470093,0.001516171,0.218595349
777,E05000856,Orrell,353321,404083,-2.70567989,53.53133011,0.001204112,0.220138868
778,E05000857,Pemberton,355101,405469,-2.67902994,53.5439415,0.00084642,0.157129964
779,E05000858,Shevington with Lower Ground,354692,408504,-2.6856401,53.57117844,0.001217304,0.225726522
780,E05000859,Standish with Langtree,355996,410264,-2.66619992,53.58710861,0.001417559,0.194462578
781,E05000860,Tyldesley,369533,402337,-2.46093988,53.51683044,0.000751936,0.171827157
782,E05000861,Wigan Central,358550,406484,-2.62712002,53.55334854,0.000479378,0.10598425
783,E05000862,Wigan West,356532,406901,-2.65762997,53.55693054,0.000364607,0.114715665
784,E05000863,Winstanley,355407,402755,-2.67402005,53.5195694,0.000836078,0.125483499
785,E05000864,Worsley Mesnes,357808,403626,-2.63792992,53.52759933,0.000804902,0.137722877
786,E05000886,Allerton and Hunts Cross,341999,385889,-2.87311006,53.36668015,0.000857276,0.154319843
787,E05000887,Anfield,336598,393224,-2.95573997,53.43198013,0.000315803,0.100300426
788,E05000888,Belle Vale,343491,388782,-2.85121012,53.39284134,0.000638131,0.158100573
789,E05000889,Central,335050,390433,-2.97846007,53.40671158,0.000436937,0.135103635
790,E05000890,Childwall,340631,389375,-2.89432001,53.39786148,0.00042631,0.135326919
791,E05000891,Church,339976,387552,-2.90382004,53.38140106,0.000466957,0.092369586
792,E05000892,Clubmoor,337859,394087,-2.93692994,53.43989182,0.000384533,0.091329053
793,E05000893,County,336142,394545,-2.96286988,53.44380188,0.000257883,0.092591535
794,E05000894,Cressington,339875,385297,-2.90491009,53.36111832,0.000427997,0.098525359
795,E05000895,Croxteth,340801,395293,-2.89287996,53.45106888,0.000716783,0.129586616
796,E05000896,Everton,335980,392038,-2.96479988,53.42124939,0.000484901,0.090489391
797,E05000897,Fazakerley,338603,396805,-2.92627001,53.46440125,0.0008148,0.179947688
798,E05000898,Greenbank,338089,388359,-2.93234992,53.38843918,0.000286123,0.105981173
799,E05000899,Kensington and Fairfield,337213,391243,-2.94608998,53.41424942,0.000271145,0.089563581
800,E05000900,Kirkdale,334455,392707,-2.98787999,53.42707062,0.000825734,0.134996557
801,E05000901,Knotty Ash,341163,391632,-2.88673997,53.41820145,0.000468981,0.144510576
802,E05000902,Mossley Hill,338430,386161,-2.92679,53.36872101,0.00042385,0.105657011
803,E05000903,Norris Green,338830,395044,-2.9224999,53.44860077,0.000357196,0.084517464
804,E05000904,Old Swan,339140,391115,-2.91707993,53.41333008,0.000339497,0.088170685
805,E05000905,Picton,337615,389670,-2.93972993,53.40016174,0.00041033,0.110062921
806,E05000906,Princes Park,336272,388651,-2.9597199,53.39083862,0.000328105,0.079957416
807,E05000907,Riverside,335172,388732,-2.97626996,53.39144135,0.000508796,0.119179738
808,E05000908,St Michael's,337100,387208,-2.94698,53.37797928,0.000444875,0.099090306
809,E05000909,Speke-Garston,342937,383238,-2.85853004,53.34296036,0.001658791,0.234072579
810,E05000910,Tuebrook and Stoneycroft,338306,392424,-2.9298799,53.42499924,0.000347898,0.109197825
811,E05000911,Warbreck,336352,396119,-2.96003008,53.45796967,0.00041673,0.107987094
812,E05000912,Wavertree,339401,389330,-2.91281009,53.39731979,0.000395173,0.093082139
813,E05000913,West Derby,339979,393705,-2.9049499,53.43669891,0.000421072,0.124393049
814,E05000914,Woolton,342011,387593,-2.87323999,53.38199997,0.00050838,0.127707795
815,E05000915,Yew Tree,341395,393191,-2.88353992,53.43223953,0.000477586,0.124802304
816,E05000916,Billinge and Seneley Green,353813,399950,-2.69764996,53.49422836,0.001443076,0.21321321
817,E05000917,Blackbrook,353462,396669,-2.70245004,53.46471024,0.00044569,0.152095255
818,E05000918,Bold,353189,390940,-2.70570993,53.41318893,0.002667122,0.316527068
819,E05000919,Earlestown,356776,395616,-2.65239,53.45552826,0.000627188,0.175644133
820,E05000920,Eccleston,348138,394902,-2.78235006,53.44832993,0.001318254,0.223829282
821,E05000921,Haydock,356914,397526,-2.65057993,53.47269821,0.001908887,0.326771727
822,E05000922,Moss Bank,351742,397994,-2.72855997,53.4764595,0.000769424,0.151024077
823,E05000923,Newton,359148,394964,-2.61659002,53.44985962,0.000953763,0.198253996
824,E05000924,Parr,353765,394761,-2.6976099,53.44757843,0.000602218,0.12257555
825,E05000925,Rainford,348751,400235,-2.77398992,53.49631882,0.00419596,0.332959563
826,E05000926,Rainhill,349314,391004,-2.76400995,53.41341019,0.000895003,0.168233931
827,E05000927,Sutton,352976,392793,-2.70918989,53.42982864,0.000310331,0.091918967
828,E05000928,Thatto Heath,350606,393116,-2.74491,53.43251038,0.000790019,0.150419626
829,E05000929,Town Centre,351208,394895,-2.73611999,53.44855881,0.000791266,0.164442952
830,E05000930,West Park,349567,394769,-2.7608099,53.44726944,0.00033656,0.104784695
831,E05000931,Windle,349844,396550,-2.7569201,53.4632988,0.000403511,0.111745671
832,E05000932,Ainsdale,330561,412099,-3.05078006,53.60084915,0.00111056,0.199485747
833,E05000933,Birkdale,333046,414534,-3.01375008,53.62305069,0.00041622,0.097200606
834,E05000934,Blundellsands,330761,399997,-3.04506993,53.49211884,0.000653973,0.127454157
835,E05000935,Cambridge,334744,419335,-2.98909998,53.66640854,0.001341406,0.254496076
836,E05000936,Church,332068,397649,-3.02486992,53.47117996,0.000456899,0.109409159
837,E05000937,Derby,334886,395495,-2.98197007,53.45217896,0.000297223,0.079779361
838,E05000938,Duke's,332334,416006,-3.02484012,53.63618851,0.001291008,0.201631766
839,E05000939,Ford,333901,398354,-2.99741006,53.47774887,0.000451931,0.112675278
840,E05000940,Harington,329690,408899,-3.06321001,53.57197189,0.002212325,0.261016928
841,E05000941,Kew,334808,415639,-2.98734999,53.63320923,0.000551478,0.105713485
842,E05000942,Linacre,332972,395659,-3.01082993,53.45341873,0.000718375,0.13512877
843,E05000943,Litherland,334217,396953,-2.9923501,53.46519852,0.00026536,0.105372616
844,E05000944,Manor,332505,401775,-3.01917005,53.50831985,0.001734601,0.330413211
845,E05000945,Meols,336672,420036,-2.96006989,53.67295074,0.001053154,0.314467485
846,E05000946,Molyneux,338924,400312,-2.92211008,53.49596024,0.001704377,0.305960226
847,E05000947,Netherton and Orrell,335723,398104,-2.96990991,53.4757309,0.000576796,0.143665487
848,E05000948,Norwood,335814,416670,-2.97234988,53.64260101,0.000495134,0.113190909
849,E05000949,Park,336618,402984,-2.9574101,53.5196991,0.001892267,0.295428668
850,E05000950,Ravenmeols,331259,404266,-3.03850007,53.5305481,0.002385483,0.366280746
851,E05000951,St Oswald,335633,399751,-2.97160006,53.49052048,0.000398387,0.125788749
852,E05000952,Sudell,338607,402137,-2.92724991,53.51232147,0.000716951,0.129120373
853,E05000953,Victoria,332132,399296,-3.02426004,53.48598862,0.000300491,0.08986211
854,E05000954,Bebington,331811,384396,-3.02587008,53.35205078,0.000984504,0.163535529
855,E05000955,Bidston and St James,329880,389893,-3.05609012,53.40119934,0.000941522,0.177789999
856,E05000956,Birkenhead and Tranmere,332115,388261,-3.02213001,53.38682175,0.00048567,0.129290308
857,E05000957,Bromborough,334717,383471,-2.98202991,53.34410095,0.001052968,0.151948965
858,E05000958,Clatterbridge,331396,381821,-3.03153992,53.32884979,0.003520937,0.286896435
859,E05000959,Claughton,328935,388291,-3.06994009,53.38666916,0.000577564,0.154187795
860,E05000960,Eastham,336255,380583,-2.95834994,53.31832886,0.001034433,0.15831063
861,E05000961,"Greasby, Frankby and Irby",325298,386264,-3.12413001,53.36795044,0.001352782,0.202559555
862,E05000962,Heswall,327063,381297,-3.09647012,53.32355881,0.001611397,0.321922359
863,E05000963,Hoylake and Meols,322878,388766,-3.16110992,53.39009094,0.001449852,0.274648819
864,E05000964,Leasowe and Moreton East,327236,390848,-3.09607005,53.40942001,0.000848593,0.128552446
865,E05000965,Liscard,331021,391926,-3.03938007,53.41962051,0.000279493,0.109485482
866,E05000966,Moreton West and Saughall Massie,325346,389849,-3.12425995,53.40018082,0.000636385,0.12106398
867,E05000967,New Brighton,330596,393466,-3.04610991,53.4333992,0.000320455,0.099428422
868,E05000968,Oxton,330358,387490,-3.0483799,53.37966156,0.000432984,0.110830205
869,E05000969,Pensby and Thingwall,327134,384806,-3.09621,53.35511017,0.001475884,0.218045331
870,E05000970,Prenton,330283,386381,-3.0492599,53.36968994,0.000514634,0.117692113
871,E05000971,Rock Ferry,332692,386819,-3.01314998,53.37393951,0.000443585,0.136675083
872,E05000972,Seacombe,331295,390850,-3.03502011,53.40998077,0.000460202,0.120136405
873,E05000973,Upton,327471,387918,-3.09186006,53.38312149,0.000574447,0.114845981
874,E05000974,Wallasey,328967,392781,-3.07047009,53.42702866,0.000591756,0.136552038
875,E05000975,West Kirby and Thurstaston,323215,385878,-3.15533996,53.36418152,0.001619612,0.242956745
876,E05000976,Central,435247,406419,-1.46945,53.55324173,0.000573722,0.125125585
877,E05000977,Cudworth,439130,408942,-1.41052997,53.57564163,0.001155185,0.209367762
878,E05000978,Darfield,441799,404896,-1.37075996,53.53907013,0.002416374,0.29540418
879,E05000979,Darton East,432552,409800,-1.50977004,53.58380127,0.000996984,0.183113253
880,E05000980,Darton West,430731,409233,-1.53733003,53.57881165,0.001562693,0.262017908
881,E05000981,Dearne North,446070,405467,-1.30623996,53.54384995,0.000933308,0.195943674
882,E05000982,Dearne South,445371,403331,-1.31709003,53.52471161,0.001183023,0.191878121
883,E05000983,Dodworth,431468,405712,-1.52655995,53.54711914,0.00141751,0.221810502
884,E05000984,Hoyland Milton,438159,400942,-1.42615998,53.50381088,0.000956797,0.188990089
885,E05000985,Kingstone,433921,405849,-1.48951995,53.5481987,0.000379228,0.120626274
886,E05000986,Monk Bretton,437463,409941,-1.43558002,53.58473969,0.001014841,0.242167457
887,E05000987,North East,441141,409833,-1.38004005,53.58348846,0.002857254,0.326921958
888,E05000988,Old Town,434291,407536,-1.48374999,53.56333923,0.000485251,0.139056329
889,E05000989,Penistone East,430225,403069,-1.54557002,53.52344131,0.011980448,0.878424075
890,E05000990,Penistone West,418795,402678,-1.71799004,53.52045059,0.010773337,0.663505386
891,E05000991,Rockingham,435633,400274,-1.46431994,53.49797821,0.001184235,0.172182073
892,E05000992,Royston,436193,411452,-1.45458996,53.59841156,0.000939114,0.169444643
893,E05000993,St Helens,434985,409188,-1.47309005,53.57814026,0.000613867,0.143878303
894,E05000994,Stairfoot,437537,405092,-1.43504,53.54114914,0.001061801,0.205895785
895,E05000995,Wombwell,438983,402809,-1.41350996,53.5205307,0.000906773,0.182786514
896,E05000996,Worsbrough,435852,403245,-1.46068001,53.52466965,0.001234927,0.220007193
897,E05001019,Boston Castle,442861,391864,-1.35651004,53.4218483,0.001102513,0.212624171
898,E05001020,Brinsworth and Catcliffe,442174,389336,-1.36717999,53.399189,0.000850963,0.190363758
899,E05001022,Hellaby,448409,391565,-1.27307999,53.41868973,0.001231507,0.25319849
900,E05001023,Holderness,446615,385619,-1.30094004,53.36540985,0.001120195,0.221817972
901,E05001024,Hoober,440096,398582,-1.39725995,53.48244858,0.003715236,0.384043788
902,E05001025,Keppel,438643,394834,-1.41961002,53.44887161,0.001271997,0.192312373
903,E05001026,Maltby,454176,391151,-1.18638003,53.41440964,0.00279488,0.340716772
904,E05001027,Rawmarsh,443577,396096,-1.34514999,53.45983124,0.000873723,0.165258391
905,E05001028,Rother Vale,445702,387395,-1.31440997,53.38145065,0.00313093,0.452754202
906,E05001029,Rotherham East,444164,393572,-1.33667004,53.43709946,0.000449057,0.093673158
907,E05001030,Rotherham West,440410,392949,-1.39324999,53.43180084,0.000714625,0.180231644
908,E05001031,Silverwood,447215,395798,-1.29041004,53.45684052,0.003021148,0.381045786
909,E05001032,Sitwell,446016,389866,-1.30932999,53.4036293,0.001614269,0.224827094
910,E05001033,Swinton,445737,398625,-1.31226003,53.48237991,0.000669098,0.153287405
911,E05001034,Valley,446085,393131,-1.30780995,53.43296814,0.000915385,0.191673774
912,E05001035,Wales,449904,382229,-1.25206006,53.3346405,0.005199504,0.480434298
913,E05001036,Wath,444089,400140,-1.33687997,53.49613953,0.001463572,0.245048307
914,E05001037,Wickersley,448545,392488,-1.27089,53.42697144,0.000370639,0.134316196
915,E05001038,Wingfield,441634,395132,-1.37453997,53.45132065,0.000795798,0.162716639
916,E05001067,Birtley,427564,554979,-1.57183003,54.88880157,0.000535502,0.116786891
917,E05001068,Blaydon,418682,562643,-1.7098,54.95808029,0.000724723,0.159265041
918,E05001069,Bridges,425902,563064,-1.59702003,54.96154022,0.000416505,0.107803199
919,E05001071,Chowdene,426178,559049,-1.59307003,54.92544937,0.000220121,0.075325092
920,E05001072,Crawcrook and Greenside,414247,562566,-1.77906001,54.9575386,0.00256367,0.352066946
921,E05001073,Deckham,426542,561450,-1.58717,54.94701004,0.000208347,0.077191557
922,E05001074,Dunston and Teams,422524,562392,-1.64981997,54.9556694,0.000444281,0.200927011
923,E05001075,Dunston Hill and Whickham East,421977,560989,-1.65847003,54.94308853,0.000602271,0.116727179
924,E05001076,Felling,427668,562283,-1.56952,54.95442963,0.000408116,0.102002424
925,E05001077,High Fell,427365,559853,-1.57448006,54.93260956,0.000328054,0.104968863
926,E05001078,Lamesley,424663,556995,-1.61688995,54.90707016,0.003661626,0.381339511
927,E05001079,Lobley Hill and Bensham,424023,560663,-1.62655997,54.94005966,0.000545088,0.149664019
928,E05001080,Low Fell,425808,560285,-1.59873998,54.93658066,0.000261595,0.092083084
929,E05001081,Pelaw and Heworth,429681,562220,-1.53808999,54.95375061,0.000453954,0.150086316
930,E05001082,"Ryton, Crookhill and Stella",415819,564094,-1.75443006,54.97121811,0.000839138,0.162232769
931,E05001083,Saltwell,425193,561305,-1.60825002,54.94577026,0.000208931,0.066756717
932,E05001084,Wardley and Leam Lane,430266,561080,-1.52908003,54.94347,0.000588602,0.122480798
933,E05001085,Whickham North,420615,562048,-1.67965996,54.95265961,0.000532967,0.146333929
934,E05001086,Whickham South and Sunniside,419633,558969,-1.69519997,54.92502975,0.002041136,0.309538867
935,E05001087,Windy Nook and Whitehills,428246,560358,-1.56068003,54.93709946,0.00041068,0.105667944
936,E05001088,Winlaton and High Spen,415995,560595,-1.75187004,54.93976974,0.001599077,0.292845467
937,E05001089,Benwell and Scotswood,420515,564450,-1.68104994,54.97425079,0.000562963,0.120119834
938,E05001090,Blakelaw,421620,566349,-1.66365004,54.99126816,0.000305629,0.089265672
939,E05001091,Byker,427007,564421,-1.57964003,54.97367859,0.000327612,0.113824054
940,E05001092,Castle,421236,573881,-1.66909003,55.05895996,0.003116496,0.340968157
941,E05001093,Dene,426883,567628,-1.58126998,55.00249863,0.000408791,0.125990208
942,E05001094,Denton,419016,566335,-1.70433998,54.99124908,0.000310081,0.108881006
943,E05001095,East Gosforth,425080,568114,-1.60941994,55.00696182,0.000280978,0.084231679
944,E05001096,Elswick,422979,563686,-1.64261997,54.96728134,0.000403676,0.144124368
945,E05001097,Fawdon,422666,568983,-1.64708996,55.01488876,0.000297505,0.089356276
946,E05001098,Fenham,420642,565729,-1.67897999,54.98574066,0.00033855,0.099512636
947,E05001099,Kenton,422573,567111,-1.64868999,54.99806976,0.000455694,0.111299562
948,E05001100,Lemington,418175,565012,-1.71756995,54.97938919,0.000640307,0.149187417
949,E05001101,Newburn,416114,566817,-1.74967003,54.99568176,0.001257731,0.178732664
950,E05001102,North Heaton,427086,566602,-1.57819998,54.99327087,0.000297494,0.09677435
951,E05001103,North Jesmond,425389,566559,-1.60472,54.99298096,0.000189553,0.064526602
952,E05001104,Ouseburn,425861,564832,-1.59749997,54.97742844,0.000219232,0.094624302
953,E05001105,Parklands,424661,570179,-1.61579001,55.0255394,0.001123014,0.165318897
954,E05001106,South Heaton,427244,565543,-1.57582998,54.98374939,0.000251082,0.099284989
955,E05001107,South Jesmond,425627,565452,-1.60109997,54.98302078,0.00025216,0.10167554
956,E05001108,Walker,428867,563892,-1.55062997,54.96881866,0.000401469,0.097218773
957,E05001109,Walkergate,429071,565609,-1.54727006,54.98424149,0.000332512,0.116273488
958,E05001110,Westerhope,418611,567478,-1.71060002,55.00152969,0.000294383,0.102819194
959,E05001111,Westgate,424346,564352,-1.62120998,54.97320175,0.000394133,0.133387082
960,E05001112,West Gosforth,423803,567797,-1.62941003,55.00418091,0.000346852,0.095161487
961,E05001113,Wingrove,423792,565582,-1.62976003,54.98426819,0.000535293,0.148739895
962,E05001114,Woolsington,418685,569491,-1.70931005,55.01961899,0.002597467,0.302447372
963,E05001115,Battle Hill,431059,568622,-1.51587999,55.01118851,0.000380197,0.105410454
964,E05001116,Benton,427925,569149,-1.56483996,55.01610947,0.00037638,0.133219314
965,E05001117,Camperdown,427507,572179,-1.57107997,55.04336929,0.00072041,0.131403052
966,E05001118,Chirton,433771,568191,-1.47353005,55.00714874,0.000423832,0.108072456
967,E05001119,Collingwood,433412,570050,-1.47893,55.02386856,0.000939146,0.172517854
968,E05001120,Cullercoats,435440,570774,-1.44711995,55.03023911,0.000266447,0.09724082
969,E05001121,Howdon,431677,567647,-1.50633001,55.00239182,0.000335182,0.094090881
970,E05001122,Killingworth,428966,570579,-1.54841006,55.02891159,0.001007708,0.174095888
971,E05001123,Longbenton,426694,569793,-1.58403003,55.02196884,0.000540592,0.13501299
972,E05001124,Monkseaton North,434247,572476,-1.46557999,55.04561996,0.000256624,0.086252457
973,E05001125,Monkseaton South,434271,571393,-1.46533,55.03588104,0.000302026,0.120447555
974,E05001126,Northumberland,429113,567844,-1.54639006,55.00431824,0.000505137,0.132609611
975,E05001127,Preston,434832,569095,-1.45683002,55.01520157,0.000242925,0.066461983
976,E05001128,Riverside,434631,567349,-1.46019006,54.99951935,0.00071183,0.221193362
977,E05001129,St Mary's,433380,573730,-1.47899997,55.05693817,0.001035966,0.18048103
978,E05001130,Tynemouth,436360,569496,-1.43289006,55.0186882,0.000428187,0.144780813
979,E05001131,Valley,430785,571832,-1.51981997,55.04005814,0.001246942,0.205825783
980,E05001132,Wallsend,430376,566629,-1.52677,54.99332809,0.00043921,0.145504375
981,E05001133,Weetslade,424966,573199,-1.61075997,55.0526619,0.001187971,0.18467315
982,E05001134,Whitley Bay,435629,571987,-1.44401002,55.04113007,0.00022452,0.0847535
983,E05001135,Beacon and Bents,436831,567411,-1.42578995,54.99991989,0.000355759,0.141404257
984,E05001136,Bede,434370,563962,-1.46466994,54.96910095,0.000596447,0.2231629
985,E05001137,Biddick and All Saints,435430,563299,-1.44819999,54.96306992,0.000249858,0.09812928
986,E05001138,Boldon Colliery,435232,561872,-1.45146,54.95026016,0.00078742,0.134028796
987,E05001139,Cleadon and East Boldon,437971,562086,-1.40866995,54.95198822,0.0015233,0.237885671
988,E05001140,Cleadon Park,437816,564000,-1.41084003,54.96920013,0.000282404,0.098120977
989,E05001141,Fellgate and Hedworth,432610,561175,-1.49248004,54.94417953,0.001208229,0.157423465
990,E05001142,Harton,438168,564788,-1.40524006,54.97624969,0.000222787,0.083793464
991,E05001143,Hebburn North,430824,564566,-1.51998997,54.97475815,0.000382755,0.101508478
992,E05001144,Hebburn South,431201,563396,-1.51423001,54.96422958,0.000386971,0.098135629
993,E05001145,Horsley Hill,438436,565935,-1.40090001,54.98654175,0.00038756,0.116573785
994,E05001146,Monkton,432126,563781,-1.49974,54.96762848,0.000264803,0.093083874
995,E05001147,Primrose,432738,565096,-1.49003005,54.97940063,0.000436825,0.133735639
996,E05001148,Simonside and Rekendyke,435537,565210,-1.44629002,54.98023987,0.000346243,0.114593963
997,E05001149,Westoe,437232,566027,-1.41970003,54.98744965,0.000194305,0.072192441
998,E05001150,West Park,436669,565205,-1.42859995,54.98011017,0.000173329,0.060474349
999,E05001151,Whitburn and Marsden,440205,562933,-1.37368,54.95941925,0.000976861,0.182961954
1000,E05001152,Whiteleas,436809,563431,-1.42664003,54.96416092,0.000261231,0.080188603
1001,E05001153,Barnes,437632,555695,-1.41480005,54.89458084,0.000299826,0.081962176
1002,E05001154,Castle,435772,558349,-1.44347,54.91857147,0.000488312,0.119832167
1003,E05001155,Copt Hill,435144,550572,-1.45421004,54.84872818,0.002115468,0.309327272
1004,E05001156,Doxford,438089,551915,-1.40816998,54.86058044,0.001282865,0.24332862
1005,E05001157,Fulwell,439538,559740,-1.38452995,54.9307785,0.000357568,0.120174353
1006,E05001158,Hendon,440709,556267,-1.36675,54.89947891,0.000537766,0.152910877
1007,E05001159,Hetton,435143,547213,-1.45463002,54.81855011,0.002178995,0.278125568
1008,E05001160,Houghton,432923,550487,-1.48880994,54.84812164,0.000766348,0.138376295
1009,E05001161,Millfield,438715,556997,-1.39774001,54.90620041,0.000344459,0.104708173
1010,E05001162,Pallion,437045,556979,-1.42378998,54.90616989,0.000446813,0.118366737
1011,E05001163,Redhill,436500,559509,-1.43197,54.92893982,0.000388891,0.12666987
1012,E05001164,Ryhope,440555,553155,-1.36959004,54.87152863,0.000785448,0.152374189
1013,E05001165,St Anne's,435799,556402,-1.44329,54.90106964,0.000438191,0.11648383
1014,E05001166,St Chad's,436408,553434,-1.43417001,54.87435913,0.000442962,0.109494543
1015,E05001167,St Michael's,439509,555682,-1.38554001,54.89432144,0.000386277,0.0971492
1016,E05001168,St Peter's,440594,559102,-1.36813998,54.92496872,0.000287684,0.118619248
1017,E05001169,Sandhill,436056,554602,-1.43950999,54.88488007,0.000363686,0.096219182
1018,E05001170,Shiney Row,433433,554081,-1.48045003,54.88037872,0.001513729,0.200037031
1019,E05001171,Silksworth,438564,553969,-1.40050006,54.87900162,0.000547208,0.127828256
1020,E05001172,Southwick,438204,559187,-1.40541995,54.92591858,0.000620729,0.15288286
1021,E05001173,Washington Central,430637,555981,-1.52383006,54.89762878,0.000450928,0.093147794
1022,E05001174,Washington East,432058,555823,-1.50169003,54.89611816,0.00104316,0.283697347
1023,E05001175,Washington North,432426,558401,-1.49565995,54.91925812,0.001651203,0.20272577
1024,E05001176,Washington South,429231,554879,-1.54586005,54.88780975,0.000605042,0.162799976
1025,E05001177,Washington West,429192,558021,-1.54614997,54.91604996,0.000905336,0.15418223
1026,E05001178,Acocks Green,411777,282714,-1.82816005,52.44227982,0.000631055,0.129941244
1027,E05001179,Aston,407055,289207,-1.89749002,52.50072861,0.000597858,0.114091588
1028,E05001180,Bartley Green,400870,281606,-1.98862004,52.43244171,0.001172307,0.193335354
1029,E05001181,Billesley,408866,279946,-1.87106001,52.41744995,0.000748037,0.175973437
1030,E05001182,Bordesley Green,411128,286296,-1.83758998,52.47449112,0.000552856,0.112438842
1031,E05001183,Bournville,404558,280672,-1.93438995,52.4240303,0.0008455,0.160477085
1032,E05001184,Brandwood,407067,279922,-1.89751005,52.41725922,0.000734448,0.133517153
1033,E05001185,Edgbaston,405375,285023,-1.92230999,52.46313858,0.001153349,0.170199007
1034,E05001186,Erdington,411160,292019,-1.83693004,52.52593994,0.000591196,0.152830428
1035,E05001187,Hall Green,410830,281037,-1.84213996,52.42721939,0.000675282,0.131690649
1036,E05001188,Handsworth Wood,404388,291255,-1.93675005,52.51916885,0.000910673,0.137122284
1037,E05001189,Harborne,402800,285160,-1.96019995,52.4643898,0.000723868,0.160161876
1038,E05001190,Hodge Hill,412041,289050,-1.82404995,52.49922943,0.000754914,0.171443473
1039,E05001191,Kings Norton,404351,278124,-1.93745995,52.40111923,0.000837355,0.156508716
1040,E05001192,Kingstanding,409064,293988,-1.86776996,52.54367828,0.000573583,0.127847425
1041,E05001193,Ladywood,405594,286921,-1.91904998,52.48020172,0.000726078,0.151507258
1042,E05001194,Longbridge,399774,277625,-2.00472999,52.39664841,0.000944059,0.169923121
1043,E05001195,Lozells and East Handsworth,405391,290075,-1.92199004,52.50854874,0.000509108,0.117506366
1044,E05001196,Moseley and Kings Heath,407515,282562,-1.89085996,52.44099045,0.000865135,0.137158791
1045,E05001197,Nechells,409175,288929,-1.86626995,52.49819946,0.001434925,0.245984623
1046,E05001198,Northfield,402261,278386,-1.96817994,52.40348816,0.000726439,0.16126538
1047,E05001199,Oscott,407126,294021,-1.89634001,52.54401016,0.000849694,0.14541154
1048,E05001200,Perry Barr,406451,292074,-1.90634,52.52650833,0.001024281,0.178453934
1049,E05001201,Quinton,400447,284679,-1.99484003,52.46007156,0.000696674,0.152257487
1050,E05001202,Selly Oak,404634,282417,-1.93324995,52.43970871,0.000563922,0.131891024
1051,E05001203,Shard End,415222,287963,-1.77724004,52.48937988,0.000861958,0.165904994
1052,E05001204,Sheldon,414664,285199,-1.78558004,52.46455002,0.000797711,0.150410237
1053,E05001205,Soho,404309,288455,-1.93795002,52.49399948,0.00064963,0.18602977
1054,E05001206,South Yardley,411464,284936,-1.83269,52.4622612,0.000930202,0.186929859
1055,E05001207,Sparkbrook,408096,284613,-1.88226998,52.45941925,0.000518418,0.12770278
1056,E05001208,Springfield,409911,283391,-1.85558999,52.44839859,0.000549892,0.146272334
1057,E05001209,Stechford and Yardley North,413673,286785,-1.80009997,52.47882843,0.00063326,0.126030215
1058,E05001210,Stockland Green,409827,291457,-1.85659003,52.5209198,0.000617305,0.120046952
1059,E05001211,Sutton Four Oaks,411349,299076,-1.83389997,52.58937836,0.002602163,0.253746425
1060,E05001212,Sutton New Hall,414319,293266,-1.79031003,52.53707886,0.002610215,0.346909826
1061,E05001213,Sutton Trinity,413453,296622,-1.80294001,52.56726837,0.001580628,0.227734361
1062,E05001214,Sutton Vesey,410772,294847,-1.84255004,52.55136871,0.000850338,0.212327735
1063,E05001215,Tyburn,413859,291182,-1.79718006,52.51836014,0.00113955,0.217094314
1064,E05001216,Washwood Heath,410915,288074,-1.84066999,52.49047852,0.000546155,0.124821629
1065,E05001217,Weoley,402013,281109,-1.97180998,52.42797089,0.000724015,0.164416255
1066,E05001218,Bablake,429800,282581,-1.56303,52.44039917,0.002842061,0.383527306
1067,E05001219,Binley and Willenhall,436854,277078,-1.45986998,52.39051056,0.000666063,0.126738191
1068,E05001220,Cheylesmore,434901,276644,-1.48861003,52.38673019,0.000764751,0.189767063
1069,E05001221,Earlsdon,431812,277334,-1.53392994,52.39311981,0.000718268,0.170679198
1070,E05001222,Foleshill,434174,281518,-1.49879003,52.43059158,0.000485888,0.109656038
1071,E05001223,Henley,437692,281855,-1.44702005,52.43339157,0.000939646,0.174245327
1072,E05001224,Holbrook,433105,282906,-1.51437998,52.44313812,0.000462363,0.113805692
1073,E05001225,Longford,435702,282921,-1.47616994,52.44311142,0.000716465,0.170744393
1074,E05001226,Lower Stoke,435846,278717,-1.47449994,52.40531158,0.000463013,0.094359543
1075,E05001227,Radford,432928,280942,-1.51717997,52.42549133,0.000372525,0.102901531
1076,E05001228,St Michael's,433863,279091,-1.50361001,52.40879059,0.00051497,0.120587424
1077,E05001229,Sherbourne,431453,279981,-1.53895998,52.41693878,0.000436476,0.128522624
1078,E05001230,Upper Stoke,435857,280084,-1.47419,52.41759109,0.000391552,0.12208913
1079,E05001231,Wainbody,430975,275624,-1.54638004,52.37779999,0.000826834,0.195003157
1080,E05001232,Westwood,428763,277657,-1.57869995,52.39619064,0.000853009,0.190874227
1081,E05001233,Whoberley,430544,279373,-1.55236995,52.4115181,0.0003939,0.117743984
1082,E05001234,Woodlands,428303,279613,-1.58529997,52.41379929,0.000586393,0.147001764
1083,E05001235,Wyken,437337,279755,-1.45246994,52.41453934,0.000603721,0.144356844
1084,E05001236,Amblecote,390531,285510,-2.1408,52.46744919,0.000395923,0.137022029
1085,E05001237,Belle Vale,395773,283892,-2.06362009,52.45298004,0.000432666,0.137958077
1086,E05001238,Brierley Hill,391471,286944,-2.12700009,52.48035812,0.000573857,0.150595622
1087,E05001239,Brockmoor and Pensnett,390931,288907,-2.13501,52.4980011,0.000696826,0.150972483
1088,E05001240,Castle and Priory,393700,291592,-2.09426999,52.52217865,0.000597508,0.147460046
1089,E05001241,Coseley East,393983,294051,-2.09015012,52.54428864,0.000426704,0.12350635
1090,E05001242,Cradley and Wollescote,393490,284310,-2.09721994,52.45671082,0.00055261,0.145917521
1091,E05001243,Gornal,390995,291488,-2.13413,52.52120972,0.000619836,0.136497256
1092,E05001244,Halesowen North,398035,285414,-2.03033996,52.46667099,0.000537803,0.105872996
1093,E05001245,Halesowen South,397597,282997,-2.03677011,52.44493866,0.000926632,0.180695604
1094,E05001246,Hayley Green and Cradley South,394902,283003,-2.07642007,52.44498062,0.000600726,0.164929424
1095,E05001247,Kingswinford North and Wall Heath,388319,289589,-2.17351007,52.50408173,0.000557287,0.143397123
1096,E05001248,Kingswinford South,389075,288267,-2.1623199,52.49221039,0.000442185,0.128885843
1097,E05001249,Lye and Stourbridge North,391916,284833,-2.12039995,52.46139145,0.000454533,0.143154762
1098,E05001250,"Netherton, Woodside and St Andrews",393736,288397,-2.0936799,52.49346161,0.000700058,0.17041836
1099,E05001251,Norton,389380,282503,-2.15764999,52.44039917,0.000753031,0.120584065
1100,E05001252,Pedmore and Stourbridge East,391518,282786,-2.12619996,52.44298172,0.000611512,0.127984183
1101,E05001253,Quarry Bank and Dudley Wood,393775,286901,-2.09308004,52.48001099,0.000472196,0.130378865
1102,E05001254,St James's,393302,290237,-2.10011005,52.50999069,0.000458309,0.117127422
1103,E05001255,St Thomas's,394879,289598,-2.07685995,52.50426865,0.000446338,0.120608521
1104,E05001256,Sedgley,391864,294291,-2.12140012,52.54642105,0.000499486,0.133908189
1105,E05001257,Upper Gornal and Woodsetton,392970,292700,-2.10505009,52.5321312,0.000435682,0.120487089
1106,E05001258,Wollaston and Stourbridge Town,389135,284694,-2.16131997,52.46009064,0.000386001,0.110555031
1107,E05001259,Wordsley,389050,286990,-2.16265011,52.48072815,0.000389746,0.105806186
1108,E05001260,Abbey,401468,286308,-1.97981,52.47470856,0.000279672,0.081011375
1109,E05001261,Blackheath,397297,286716,-2.04121995,52.47837067,0.000342354,0.122054842
1110,E05001262,Bristnall,400338,287192,-1.99644005,52.48265839,0.00031182,0.100867535
1111,E05001263,Charlemont with Grove Vale,402032,293851,-1.97145998,52.54251862,0.000526066,0.147867164
1112,E05001264,Cradley Heath and Old Hill,394956,285810,-2.07567,52.47021103,0.000530959,0.131547846
1113,E05001265,Friar Park,400684,295347,-1.99133003,52.55596924,0.000400749,0.085893042
1114,E05001266,Great Barr with Yew Tree,403283,295130,-1.95299995,52.55400848,0.000518649,0.153100907
1115,E05001267,Great Bridge,397347,292643,-2.04052997,52.53165817,0.000474398,0.118222979
1116,E05001268,Greets Green and Lyng,399386,291207,-2.01046991,52.51876068,0.000505157,0.11673948
1117,E05001269,Hateley Heath,400400,293111,-1.99552,52.5358696,0.000405123,0.128396517
1118,E05001270,Langley,398563,287675,-2.02257991,52.48699951,0.000379965,0.126712887
1119,E05001271,Newton,403601,293320,-1.94833004,52.5377388,0.000417915,0.102236596
1120,E05001272,Old Warley,400026,285796,-2.00102997,52.47011185,0.000350356,0.095484933
1121,E05001273,Oldbury,398429,289990,-2.02456999,52.50780869,0.000878956,0.161356934
1122,E05001274,Princes End,396283,293859,-2.05623007,52.54257965,0.000345228,0.122831997
1123,E05001275,Rowley,396400,288129,-2.05444002,52.49106979,0.000566808,0.157582988
1124,E05001276,St Pauls,401579,289213,-1.97816002,52.5008316,0.000529945,0.132095681
1125,E05001277,Smethwick,401377,287981,-1.98114002,52.48974991,0.000280518,0.08342211
1126,E05001278,Soho and Victoria,403109,288292,-1.95562994,52.49253845,0.00043069,0.116382867
1127,E05001279,Tipton Green,395799,291839,-2.06333995,52.52442169,0.000456145,0.108070076
1128,E05001280,Tividale,396893,289473,-2.04718995,52.50315857,0.000357785,0.11994027
1129,E05001281,Wednesbury North,398831,295714,-2.01867008,52.55926895,0.000480727,0.125056408
1130,E05001282,Wednesbury South,398523,293731,-2.02320004,52.54143906,0.000649876,0.137104008
1131,E05001283,West Bromwich Central,401172,291393,-1.98415005,52.52043152,0.000914532,0.169884135
1132,E05001284,Bickenhill,419179,281976,-1.71931005,52.43544006,0.005235586,0.427052129
1133,E05001285,Blythe,412101,275912,-1.82362998,52.38111877,0.002076386,0.25193962
1134,E05001286,Castle Bromwich,415241,289925,-1.77687001,52.50701904,0.000426057,0.12557822
1135,E05001287,Chelmsley Wood,418312,287059,-1.73178005,52.48115921,0.000360358,0.113339681
